uid,name,region,population,latitude,longitude
C1001,Division No. 1,Newfoundland and Labrador,242875,46.921452,-53.5646762
C1002,Division No. 2,Newfoundland and Labrador,24371,47.361667,-54.893056
C1003,Division No. 3,Newfoundland and Labrador,19370,47.8973529,-57.0040199
C1004,Division No. 4,Newfoundland and Labrador,22162,48.55,-58.574167
C1005,Division No. 5,Newfoundland and Labrador,40466,49.0943731,-57.2808406
C1006,Division No. 6,Newfoundland and Labrador,36208,48.8049499,-56.3866692
C1007,Division No. 7,Newfoundland and Labrador,37335,48.9666662,-53.1726951
C1008,Division No. 8,Newfoundland and Labrador,42188,48.42,-53.88
C1009,Division No. 9,Newfoundland and Labrador,20091,51.2487291,-55.358857
C1010,Division No. 10,Newfoundland and Labrador,27864,47.55,-52.7
C1101,Kings County,Prince Edward Island,19180,46.25,-62.5
C1102,Queens County,Prince Edward Island,71619,46.3649938,-63.1656341
C1103,Prince County,Prince Edward Island,44495,46.8014526,-63.9233633
C1201,Shelburne County,Nova Scotia,16231,43.8202278,-65.3644679
C1202,Yarmouth County,Nova Scotia,26843,43.9,-65.8
C1203,Digby County,Nova Scotia,19548,44.3,-65.8
C1204,Queens County,Nova Scotia,11723,44.1631163,-64.9563453
C1205,Annapolis County,Nova Scotia,21773,44.8528802,-65.2648927
C1206,Lunenburg County,Nova Scotia,47591,44.5441625,-64.4797871
C1207,Kings County,Nova Scotia,58866,45,-64.6
C1208,Hants County,Nova Scotia,40513,45.1,-63.9
C1209,Halifax County,Nova Scotia,359183,44.8544,-63.1992
C1210,Colchester County,Nova Scotia,49307,45.4254775,-63.3275062
C1211,Cumberland County,Nova Scotia,32605,45.7,-64.1
C1212,Pictou County,Nova Scotia,46965,45.5776091,-62.6510942
C1213,Guysborough County,Nova Scotia,9827,45.2873196,-61.8262436
C1214,Antigonish County,Nova Scotia,19578,45.542031,-61.8948487
C1215,Inverness County,Nova Scotia,19937,46.2761718,-61.0541688
C1216,Richmond County,Nova Scotia,10225,45.6935815,-60.6488211
C1217,Cape Breton County,Nova Scotia,109330,46.15,-60.1667
C1218,Victoria County,Nova Scotia,7962,46.6311899,-60.4208561
C1301,Saint John County,New Brunswick,76407,45.2796,-66.0628
C1302,Charlotte County,New Brunswick,27366,44.9268,-66.9771
C1303,Sunbury County,New Brunswick,25776,45.9749516,-66.3543893
C1304,Queens County,New Brunswick,11862,45.8333,-66
C1305,Kings County,New Brunswick,64208,45.6604,-65.7898
C1306,Albert County,New Brunswick,26749,45.7781844,-64.7774199
C1307,Westmorland County,New Brunswick,124688,45.9599,-64.5155
C1308,Kent County,New Brunswick,31383,46.4651616,-65.2841777
C1309,Northumberland County,New Brunswick,50817,46.9296444,-65.8859261
C1310,York County,New Brunswick,87212,46.1999035,-67.0250252
C1311,Carleton County,New Brunswick,27184,46.3779509,-67.4899891
C1312,Victoria County,New Brunswick,21172,46.9284511,-67.4027954
C1313,Madawaska County,New Brunswick,35611,47.4214,-68.3606
C1314,Restigouche County,New Brunswick,36134,47.7680127,-66.6892807
C1315,Gloucester County,New Brunswick,82929,47.9290075,-64.4316771
C2401,Les Iles-de-la-Madeleine,Quebec,12824,47.3828692,-61.8656032
C2402,Le Rocher-Perce,Quebec,19298,48.4806516,-63.8940966
C2403,La Cote-de-Gaspe,Quebec,18545,48.9741791,-64.5193317
C2404,La Haute-Gaspesie,Quebec,12722,49.216667,-66.066667
C2405,Bonaventure,Quebec,18267,48.05,-65.4833
C2406,Avignon,Quebec,15268,48.1439834,-66.6875886
C2407,La Matapedia,Quebec,19920,48.3,-67.566667
C2408,Matane,Quebec,22507,48.8445157,-67.5305758
C2409,La Mitis,Quebec,19326,48.6535716,-68.1375384
C2410,Rimouski-Neigette,Quebec,52289,48.4071182,-68.5899567
C2411,Les Basques,Quebec,9848,48.1,-69.066667
C2412,Riviere-du-Loup,Quebec,31826,47.835957,-69.5359854
C2413,Temiscouata,Quebec,22420,47.6445035,-68.9357761
C2414,Kamouraska,Quebec,22494,47.566059,-69.865995
C2415,Charlevoix-Est,Quebec,16624,47.7333,-69.9833
C2416,Charlevoix,Quebec,13166,47.4833,-70.4833
C2417,L'Islet,Quebec,19368,47.1030919,-70.350007
C2418,Montmagny,Quebec,23438,46.9801031,-70.5565719
C2419,Bellechasse,Quebec,29570,46.7333,-70.7167
C2420,L'Ile-d'Orleans,Quebec,6779,46.9654876,-70.9062611
C2421,La Cote-de-Beaupre,Quebec,20984,47.4123275,-71.2740404
C2422,La Jacques-Cartier,Quebec,26459,47.033333,-71.583333
C2423,Communaute-Urbaine-de-Quebec,Quebec,509950,46.8032826,-71.242796
C2424,Desjardins,Quebec,51855,46.75,-71.116667
C2425,Les Chutes-de-la-Chaudiere,Quebec,78808,46.7,-71.283333
C2426,La Nouvelle-Beauce,Quebec,25850,46.4332145,-70.9554256
C2427,Robert-Cliche,Quebec,18771,46.2555934,-70.8482693
C2428,Les Etchemins,Quebec,17745,46.2985679,-70.4137389
C2429,Beauce-Sartigan,Quebec,47873,46.016459,-70.6135498
C2430,Le Granit,Quebec,21830,45.5955313,-70.9074786
C2431,L'Amiante,Quebec,43247,46.1222951,-71.2259251
C2432,L'Erable,Quebec,24021,46.1907518,-71.6337877
C2433,Lotbiniere,Quebec,26851,46.616594,-71.930745
C2434,Portneuf,Quebec,44955,46.6984528,-71.8910008
C2435,Mekinac,Quebec,12809,47.0929111,-73.3187817
C2436,Le Centre-de-la-Mauricie,Quebec,64841,46.6,-72.816667
C2437,Francheville,Quebec,138355,46.5,-72.4167
C2438,Becancour,Quebec,19088,46.3506215,-72.4350552
C2439,Arthabaska,Quebec,64089,45.9394307,-72.0236274
C2440,Asbestos,Quebec,14535,45.7741034,-71.9367197
C2441,Le Haut-Saint-Francois,Quebec,21394,45.5241118,-71.4052592
C2442,Le Val-Saint-Francois,Quebec,28176,45.5257527,-72.1250321
C2443,La Region-Sherbrookoise,Quebec,141212,45.3528411,-72.0168846
C2444,Coaticook,Quebec,16595,45.1336856,-71.8039462
C2445,Memphremagog,Quebec,41871,45.2285619,-72.2066235
C2446,Brome-Missisquoi,Quebec,46165,45.1333,-72.8
C2447,La Haute-Yamaska,Quebec,79175,45.4,-72.733333
C2448,Acton,Quebec,15167,45.5893025,-72.5239499
C2449,Drummond,Quebec,87808,45.8614852,-72.5173998
C2450,Nicolet-Yamaska,Quebec,23496,46.1511344,-72.612084
C2451,Maskinonge,Quebec,23401,46.316667,-72.933333
C2452,D'Autray,Quebec,38347,46.1720679,-73.2616025
C2453,Le Bas-Richelieu,Quebec,50066,45.966667,-73
C2454,Les Maskoutains,Quebec,78917,45.608058,-72.8944642
C2455,Rouville,Quebec,29980,45.433333,-73.05
C2456,Le Haut-Richelieu,Quebec,100753,45.2260631,-73.1815104
C2457,La Vallee-du-Richelieu,Quebec,119993,45.596337,-73.2000611
C2458,Champlain,Quebec,311838,46.4409094,-72.3450988
C2459,Lajemmerais,Quebec,100263,45.6402054,-73.3628835
C2460,L'Assomption,Quebec,103977,45.8166667,-73.4333333
C2461,Joliette,Quebec,54167,46.0232219,-73.439239
C2462,Matawinie,Quebec,43177,46.8005382,-74.0465474
C2463,Montcalm,Quebec,38740,45.9,-73.666667
C2464,Les Moulins,Quebec,110087,45.7557789,-73.6181046
C2465,Laval,Quebec,343005,45.583333,-73.75
C2466,Communaute-Urbaine-de-Montreal,Quebec,1812723,45.4699445,-73.7852913
C2467,Roussillon,Quebec,138172,45.3700543,-73.6303305
C2468,Les Jardins-de-Napierville,Quebec,22820,45.128676,-73.5596403
C2469,Le Haut-Saint-Laurent,Quebec,21851,45.057683,-74.1281342
C2470,Beauharnois-Salaberry,Quebec,59137,45.2564956,-73.9089456
C2471,Vaudreuil-Soulanges,Quebec,102100,45.3834123,-74.2591416
C2472,Deux-Montagnes,Quebec,81417,45.5418051,-73.8932108
C2473,Therese-De Blainville,Quebec,130514,45.6485491,-73.8151147
C2474,Mirabel,Quebec,27330,45.6637535,-74.0019645
C2475,La Riviere-du-Nord,Quebec,90419,45.8133165,-74.0147676
C2476,Argenteuil,Quebec,28931,45.711351,-74.3925274
C2477,Les Pays-d'en-Haut,Quebec,30866,45.9135909,-74.1719811
C2478,Les Laurentides,Quebec,38433,46.157259,-74.5177098
C2479,Antoine-Labelle,Quebec,33456,46.967219,-75.2639682
C2480,Papineau,Quebec,20367,45.883333,-75.05
C2481,Communaute-Urbaine-de-l'Outaouais,Quebec,226696,45.4765446,-75.7012723
C2482,Les Collines-de-l'Outaouais,Quebec,35188,45.6761286,-75.8762498
C2483,La Vallee-de-la-Gatineau,Quebec,18730,46.8584413,-76.2818259
C2484,Pontiac,Quebec,14565,45.542346,-76.109052
C2485,Temiscamingue,Quebec,17504,47.55,-79.233333
C2486,Rouyn-Noranda,Quebec,39621,48.233333,-79.016667
C2487,Abitibi-Ouest,Quebec,21984,48.7626471,-79.0469034
C2488,Abitibi,Quebec,24613,48.5706148,-77.9494546
C2489,Vallee-de-l'Or,Quebec,42375,48.2538915,-76.573617
C2490,Le Haut-Saint-Maurice,Quebec,15862,48.0478949,-73.7732917
C2491,Le Domaine-du-Roy,Quebec,32839,48.6509865,-73.4157338
C2492,Maria-Chapdelaine,Quebec,26900,48.983333,-72.283333
C2493,Lac-Saint-Jean-Est,Quebec,51760,48.4740397,-71.7487833
C2494,Le Fjord-du-Saguenay,Quebec,166780,48.717509,-70.7311947
C2495,La Haute-Cote-Nord,Quebec,12894,49.3413579,-69.5231812
C2496,Manicouagan,Quebec,33620,49.216667,-68.15
C2497,Sept-Rivieres--Caniapiscau,Quebec,38931,52.3498864,-67.9418643
C2498,Minganie--Basse-Cote-Nord,Quebec,12321,49.8258507,-61.6341609
C2499,Nord-du-Quebec,Quebec,38575,52.9399159,-73.5491361
C3501,Stormont Dundas and Glengarry United Counties,Ontario,109522,45.166667,-74.95
C3502,Prescott and Russell United Counties,Ontario,76446,45.4610101,-75.1070652
C3506,Ottawa Division,Ontario,774072,45.2484615,-75.8353706
C3507,Leeds and Grenville United Counties,Ontario,96606,44.6529659,-75.9327001
C3509,Lanark County,Ontario,62495,45.0083777,-76.3589238
C3510,Frontenac County,Ontario,138606,44.579703,-76.5653577
C3511,Lennox and Addington County,Ontario,39461,44.6667,-77.1667
C3512,Hastings County,Ontario,125915,44.7072743,-77.6815168
C3513,Prince Edward Division,Ontario,24901,44,-77.25
C3514,Northumberland County,Ontario,77497,43.9291805,-78.1108279
C3515,Peterborough County,Ontario,125856,44.4598873,-78.172116
C3516,Kawartha Lakes Division,Ontario,69179,44.5337469,-78.9006484
C3518,Durham Regional Municipality,Ontario,506901,43.9368383,-78.9288242
C3519,York Regional Municipality,Ontario,729254,43.9884612,-79.4703885
C3520,Toronto Division,Ontario,2481494,43.6689775,-79.2902133
C3521,Peel Regional Municipality,Ontario,988948,43.6766398,-79.7848422
C3522,Dufferin County,Ontario,51013,44.0527524,-80.1875065
C3523,Wellington County,Ontario,187313,43.75,-80.4
C3524,Halton Regional Municipality,Ontario,375229,43.4667,-79.8667
C3525,Hamilton Division,Ontario,490268,43.25,-79.8667
C3526,Niagara Regional Municipality,Ontario,410574,43.05,-79.3
C3528,Haldimand-Norfolk Regional Municipality,Ontario,104670,42.7967232,-80.4136271
C3529,Brant County,Ontario,118485,43.1167,-80.3667
C3530,Waterloo Regional Municipality,Ontario,438515,43.4619,-80.5202
C3531,Perth County,Ontario,73675,43.518746,-81.0754657
C3532,Oxford County,Ontario,99270,43.184007,-80.7214417
C3534,Elgin County,Ontario,81553,42.6645873,-80.9871074
C3536,Chatham-Kent Division,Ontario,107709,42.1177987,-82.0407137
C3537,Essex County,Ontario,374975,42.1667,-82.7833
C3538,Lambton County,Ontario,126971,43.0527085,-82.0407137
C3539,Middlesex County,Ontario,403185,42.9310419,-81.4278984
C3540,Huron County,Ontario,59701,43.6416566,-81.6911559
C3541,Bruce County,Ontario,63892,44.6174991,-81.3662622
C3542,Grey County,Ontario,89073,44.4659957,-80.6326916
C3543,Simcoe County,Ontario,377050,44.4716525,-79.8296743
C3544,Muskoka District Municipality,Ontario,53106,45.1667,-79.3333
C3546,Haliburton County,Ontario,15085,45.176198,-78.549065
C3547,Renfrew County,Ontario,95138,45.6383081,-77.1674026
C3548,Nipissing District,Ontario,82910,46.1348941,-78.9481361
C3549,Parry Sound District,Ontario,39665,45.7,-79.833333
C3551,Manitoulin District,Ontario,12679,45.7667,-82.2
C3552,Sudbury District,Ontario,22894,47.4718117,-81.8170577
C3553,Greater Sudbury Division,Ontario,155268,46.5513927,-81.0354982
C3554,Timiskaming District,Ontario,34442,47.8308027,-80.3194903
C3556,Cochrane District,Ontario,85247,50.4700387,-83.0158522
C3557,Algoma District,Ontario,118567,47.6459165,-84.7951524
C3558,Thunder Bay District,Ontario,150860,49.3456625,-87.8656401
C3559,Rainy River District,Ontario,22109,48.8499198,-92.6370411
C3560,Kenora District,Ontario,61802,54.0731818,-88.3266666
C4601,Division No. 1,Manitoba,16432,49.7099236,-95.7962759
C4602,Division No. 2,Manitoba,50869,49.433333,-96.85
C4603,Division No. 3,Manitoba,42184,49.2717523,-97.6972846
C4604,Division No. 4,Manitoba,9942,49.1848962,-98.9011939
C4605,Division No. 5,Manitoba,13848,49.266667,-100.375
C4606,Division No. 6,Manitoba,10110,49.7512441,-100.9085575
C4607,Division No. 7,Manitoba,57148,49.7567877,-99.9362934
C4608,Division No. 8,Manitoba,14603,50.086111,-98.904167
C4609,Division No. 9,Manitoba,23322,49.9755629,-98.2055528
C4610,Division No. 10,Manitoba,9464,49.6936586,-97.5055406
C4611,Division No. 11,Manitoba,621451,49.85,-97.208333
C4612,Division No. 12,Manitoba,19251,49.9166011,-96.543017
C4613,Division No. 13,Manitoba,42183,50.2307896,-96.821851
C4614,Division No. 14,Manitoba,17589,50.1932571,-97.4322673
C4615,Division No. 15,Manitoba,21914,50.395278,-100.368889
C4616,Division No. 16,Manitoba,10341,51.0610857,-101.2064523
C4617,Division No. 17,Manitoba,22899,51.0892086,-99.9744763
C4618,Division No. 18,Manitoba,22593,50.9233717,-97.7357319
C4619,Division No. 19,Manitoba,15805,51.833333,-98
C4620,Division No. 20,Manitoba,11013,51.9948374,-101.2394272
C4621,Division No. 21,Manitoba,22556,53.9885518,-100.3474494
C4622,Division No. 22,Manitoba,35077,54.6257096,-96.2183508
C4623,Division No. 23,Manitoba,8989,57.4541661,-96.9211176
C4701,Division No. 1,Saskatchewan,30238,49.5098991,-102.4627226
C4702,Division No. 2,Saskatchewan,21635,49.67,-103.86
C4703,Division No. 3,Saskatchewan,14839,49.6961607,-106.259009
C4704,Division No. 4,Saskatchewan,11714,49.903611,-109.479722
C4705,Division No. 5,Saskatchewan,32492,50.5108774,-102.4594149
C4706,Division No. 6,Saskatchewan,219250,50.6228913,-104.3851074
C4707,Division No. 7,Saskatchewan,46982,50.5060167,-106.4996903
C4708,Division No. 8,Saskatchewan,30720,50.8429093,-108.7364265
C4709,Division No. 9,Saskatchewan,36895,51.7160144,-102.3005389
C4710,Division No. 10,Saskatchewan,19365,51.65,-103.53
C4711,Division No. 11,Saskatchewan,237629,51.7778129,-106.009897
C4712,Division No. 12,Saskatchewan,23697,51.8888622,-107.6221723
C4713,Division No. 13,Saskatchewan,24054,51.972331,-109.2704383
C4714,Division No. 14,Saskatchewan,39476,53.034634,-102.9103338
C4715,Division No. 15,Saskatchewan,80668,53.2,-105.75
C4716,Division No. 16,Saskatchewan,37663,53.1935331,-107.1431596
C4717,Division No. 17,Saskatchewan,39587,53.8081202,-108.9390153
C4718,Division No. 18,Saskatchewan,32029,56.6889485,-105.404472
C4801,Division No. 1,Alberta,67402,49.9377332,-110.9336125
C4802,Division No. 2,Alberta,133913,49.76,-112.26
C4803,Division No. 3,Alberta,37580,49.3840055,-113.6692467
C4804,Division No. 4,Alberta,11300,51.1255094,-111.063257
C4805,Division No. 5,Alberta,47606,51.04,-113.4
C4806,Division No. 6,Alberta,1021060,51.0463129,-114.0534407
C4807,Division No. 7,Alberta,40407,52.6465354,-111.4482567
C4808,Division No. 8,Alberta,153049,52.266667,-113.8
C4809,Division No. 9,Alberta,19573,52.3241323,-115.5611493
C4810,Division No. 10,Alberta,83061,53.3648741,-111.4604638
C4811,Division No. 11,Alberta,975477,53.543997,-113.489856
C4812,Division No. 12,Alberta,58362,54.615319,-111.6097121
C4813,Division No. 13,Alberta,63954,54.3048819,-114.0944882
C4814,Division No. 14,Alberta,26871,53.5119663,-116.7743827
C4815,Division No. 15,Alberta,34068,51.09,-115.35
C4816,Division No. 16,Alberta,42971,58.7016529,-111.9537953
C4817,Division No. 17,Alberta,57508,57.7582985,-116.6212527
C4818,Division No. 18,Alberta,14346,54.7016191,-118.0739397
C4819,Division No. 19,Alberta,86299,55.5133472,-118.6648009
C5901,East Kootenay Regional District,British Columbia,56291,50.1284105,-115.7568033
C5903,Central Kootenay Regional District,British Columbia,57019,49.8685203,-117.5237491
C5905,Kootenay Boundary Regional District,British Columbia,31843,49.231302,-118.6019627
C5907,Okanagan-Similkameen Regional District,British Columbia,76635,49.5173467,-120.1281752
C5909,Fraser Valley Regional District,British Columbia,237550,49.583333,-121.833333
C5915,Greater Vancouver Regional District,British Columbia,1986965,49.2501243,-123.0824217
C5917,Capital Regional District,British Columbia,325754,48.434245,-123.9139452
C5919,Cowichan Valley Regional District,British Columbia,71998,48.7569005,-124.0309983
C5921,Nanaimo Regional District,British Columbia,127016,49.25,-124.333333
C5923,Alberni-Clayoquot Regional District,British Columbia,30345,48.8447352,-125.6317059
C5925,Comox-Strathcona Regional District,British Columbia,96131,49.6735133,-124.9282659
C5927,Powell River Regional District,British Columbia,19765,50.0654245,-124.5171511
C5929,Sunshine Coast Regional District,British Columbia,25599,49.7604377,-123.7643986
C5931,Squamish-Lillooet Regional District,British Columbia,33011,50.5666362,-122.6978597
C5933,Thompson-Nicola Regional District,British Columbia,119222,50.255031,-120.6968975
C5935,Central Okanagan Regional District,British Columbia,147739,49.9473663,-119.5588209
C5937,North Okanagan Regional District,British Columbia,73227,50.3398977,-118.7840936
C5939,Columbia-Shuswap Regional District,British Columbia,48219,51.5199009,-118.0935141
C5941,Cariboo Regional District,British Columbia,65659,52.4031805,-123.4553619
C5943,Mount Waddington Regional District,British Columbia,13111,50.7443191,-128.1734903
C5945,Central Coast Regional District,British Columbia,3781,51.9329295,-127.0940535
C5947,Skeena-Queen Charlotte Regional District,British Columbia,21693,53.1053069,-132.2846569
C5949,Kitimat-Stikine Regional District,British Columbia,40876,56.5845216,-130.0464936
C5951,Bulkley-Nechako Regional District,British Columbia,40856,54.8746034,-125.536522
C5953,Fraser-Fort George Regional District,British Columbia,95317,53.9290771,-121.6214717
C5955,Peace River Regional District,British Columbia,55080,56.4374388,-123.1681613
C5957,Stikine Region,British Columbia,1316,58.461588,-130.1806
C5959,Northern Rockies Regional District,British Columbia,5720,58.8231929,-123.4127519
C6001,Yukon,Yukon,28674,64.2823274,-135
C6106,Fort Smith Region,Northwest Territories,28824,62.45,-114.4
C6107,Inuvik Region,Northwest Territories,8536,68.3607437,-133.7230177
C6204,Baffin Region,Nunavut,14372,70,-80
C6205,Keewatin Region,Nunavut,7557,62.8067068,-92.3602529
C6208,Kitikmeot Region,Nunavut,4816,68.9167,-100.75
U01001,Alabama,Autauga,43671,32.5364,-86.6445
U01003,Alabama,Baldwin,140415,30.6592,-87.7461
U01005,Alabama,Barbour,29038,31.8707,-85.4055
U01007,Alabama,Bibb,20826,33.0159,-87.1271
U01009,Alabama,Blount,51024,33.9774,-86.5672
U01011,Alabama,Bullock,11714,32.1018,-85.7173
U01013,Alabama,Butler,21399,31.7517,-86.682
U01015,Alabama,Calhoun,112249,33.7717,-85.8225
U01017,Alabama,Chambers,36583,32.9179,-85.3918
U01019,Alabama,Cherokee,23988,34.0695,-85.6542
U01021,Alabama,Chilton,39593,32.8541,-86.7266
U01023,Alabama,Choctaw,15922,31.991,-88.2489
U01025,Alabama,Clarke,27867,31.6855,-87.8186
U01027,Alabama,Clay,14254,33.2678,-85.8621
U01029,Alabama,Cleburne,14123,33.672,-85.5161
U01031,Alabama,Coffee,43615,31.4022,-85.9892
U01033,Alabama,Colbert,54984,34.7031,-87.8015
U01035,Alabama,Conecuh,14089,31.4283,-86.992
U01037,Alabama,Coosa,12202,32.9314,-86.2435
U01039,Alabama,Covington,37631,31.244,-86.4487
U01041,Alabama,Crenshaw,13665,31.7328,-86.3192
U01043,Alabama,Cullman,77483,34.1319,-86.8693
U01045,Alabama,Dale,49129,31.4307,-85.6095
U01047,Alabama,Dallas,46365,32.3335,-87.1144
U01049,Alabama,De Kalb,64452,34.4609,-85.804
U01051,Alabama,Elmore,65874,32.5972,-86.1427
U01053,Alabama,Escambia,38440,31.1217,-87.1684
U01055,Alabama,Etowah,103459,34.0476,-86.0344
U01057,Alabama,Fayette,18495,33.7322,-87.752
U01059,Alabama,Franklin,31223,34.442,-87.8428
U01061,Alabama,Geneva,25764,31.0909,-85.8243
U01063,Alabama,Greene,9974,32.8445,-87.9642
U01065,Alabama,Hale,17185,32.7528,-87.6231
U01067,Alabama,Henry,16310,31.517,-85.24
U01069,Alabama,Houston,88787,31.1582,-85.2964
U01071,Alabama,Jackson,53926,34.7635,-85.9774
U01073,Alabama,Jefferson,662047,33.5534,-86.8965
U01075,Alabama,Lamar,15904,33.7871,-88.0874
U01077,Alabama,Lauderdale,87966,34.9041,-87.651
U01079,Alabama,Lawrence,34803,34.5298,-87.3219
U01081,Alabama,Lee,115092,32.6041,-85.353
U01083,Alabama,Limestone,65676,34.8102,-86.9814
U01085,Alabama,Lowndes,13473,32.1479,-86.6506
U01087,Alabama,Macon,24105,32.387,-85.6929
U01089,Alabama,Madison,276700,34.7642,-86.5511
U01091,Alabama,Marengo,22539,32.2476,-87.7911
U01093,Alabama,Marion,31214,34.1382,-87.8816
U01095,Alabama,Marshall,82231,34.3096,-86.3217
U01097,Alabama,Mobile,399843,30.6846,-88.1966
U01099,Alabama,Monroe,24324,31.5803,-87.3833
U01101,Alabama,Montgomery,223510,32.2037,-86.2038
U01103,Alabama,Morgan,111064,34.4545,-86.8464
U01105,Alabama,Perry,11861,32.639,-87.2938
U01107,Alabama,Pickens,20949,33.2968,-88.0969
U01109,Alabama,Pike,29605,31.7987,-85.942
U01111,Alabama,Randolph,22380,33.2965,-85.4641
U01113,Alabama,Russell,49756,32.2898,-85.187
U01115,Alabama,St. Clair,64742,33.713,-86.3157
U01117,Alabama,Shelby,143293,33.2629,-86.6781
U01119,Alabama,Sumter,14798,32.5975,-88.2001
U01121,Alabama,Talladega,80321,33.3693,-86.1758
U01123,Alabama,Tallapoosa,41475,32.8634,-85.7996
U01125,Alabama,Tuscaloosa,164875,33.2902,-87.5229
U01127,Alabama,Walker,70713,33.7916,-87.3011
U01129,Alabama,Washington,18097,31.407,-88.2021
U01131,Alabama,Wilcox,13183,31.9903,-87.3022
U01133,Alabama,Winston,24843,34.1559,-87.3641
U02013,Alaska,Aleutians East,2697,55.2437,-161.9507
U02016,Alaska,Aleutians West,5465,51.9594,178.3388
U02020,Alaska,Anchorage,260283,61.1775,-149.2744
U02050,Alaska,Bethel,16006,60.9289,-160.1533
U02060,Alaska,Bristol Bay,1258,58.7314,-156.9866
U02068,Alaska,Denali,1893,63.6827,-150.0267
U02070,Alaska,Dillingham,4922,59.8248,-158.6022
U02090,Alaska,Fairbanks North Star,82840,64.6908,-146.5999
U02100,Alaska,Haines,2392,59.0999,-135.5781
U02110,Alaska,Juneau,30711,58.3727,-134.1788
U02122,Alaska,Kenai Peninsula,49691,60.3664,-152.322
U02130,Alaska,Ketchikan Gateway,14070,55.4499,-131.1067
U02150,Alaska,Kodiak Island,13913,57.5536,-153.6309
U02164,Alaska,Lake and Peninsula,1823,58.2051,-156.7052
U02170,Alaska,Matanuska Susitna,59322,62.1822,-149.408
U02180,Alaska,Nome,9196,64.7837,-164.1889
U02185,Alaska,North Slope,7385,69.4493,-153.4728
U02188,Alaska,Northwest Arctic,7208,67.0051,-160.0211
U02201,Alaska,Prince of Wales Outer Ketchikan,6146,55.45,-132.05
U02220,Alaska,Sitka,8835,57.1425,-135.3326
U02232,Alaska,Skagway Hoonah Angoon,3436,59.4583,-135.3139
U02240,Alaska,Southeast Fairbanks,6174,63.865,-143.2186
U02261,Alaska,Valdez Cordova,10195,61.3498,-145.0231
U02270,Alaska,Wade Hampton,7028,62.2832,-163.1909
U02280,Alaska,Wrangell Petersburg,6684,56.6167,-133.35
U02282,Alaska,Yakutat,808,59.9991,-140.2396
U02290,Alaska,Yukon Koyukuk,6551,65.3761,-151.5769
U04001,Arizona,Apache,69423,35.3858,-109.4937
U04003,Arizona,Cochise,117755,31.8818,-109.7541
U04005,Arizona,Coconino,116320,35.8297,-111.7737
U04007,Arizona,Gila,51335,33.7896,-110.8119
U04009,Arizona,Graham,33489,32.9318,-109.8783
U04011,Arizona,Greenlee,8547,33.2389,-109.2423
U04012,Arizona,La Paz,19715,33.7276,-114.0388
U04013,Arizona,Maricopa,3072149,33.3465,-112.4955
U04015,Arizona,Mohave,155032,35.7177,-113.7497
U04017,Arizona,Navajo,97470,35.3909,-110.3209
U04019,Arizona,Pima,843746,32.1282,-111.783
U04021,Arizona,Pinal,179727,32.9189,-111.3673
U04023,Arizona,Santa Cruz,38381,31.5259,-110.8452
U04025,Arizona,Yavapai,167517,34.63,-112.5737
U04027,Arizona,Yuma,160026,32.7739,-113.9109
U05001,Arkansas,Arkansas,20749,34.2896,-91.3765
U05003,Arkansas,Ashley,24209,33.1908,-91.7723
U05005,Arkansas,Baxter,38386,36.2807,-92.3304
U05007,Arkansas,Benton,153406,36.3378,-94.2562
U05009,Arkansas,Boone,33948,36.3043,-93.0792
U05011,Arkansas,Bradley,12600,33.4638,-92.1682
U05013,Arkansas,Calhoun,5744,33.5605,-92.5139
U05015,Arkansas,Carroll,25357,36.3378,-93.5417
U05017,Arkansas,Chicot,14117,33.2671,-91.2972
U05019,Arkansas,Clark,23546,34.0533,-93.1762
U05021,Arkansas,Clay,17609,36.3673,-90.4187
U05023,Arkansas,Cleburne,24046,35.5663,-92.06
U05025,Arkansas,Cleveland,8571,33.8932,-92.1887
U05027,Arkansas,Columbia,25603,33.2151,-93.2269
U05029,Arkansas,Conway,20336,35.2657,-92.6892
U05031,Arkansas,Craighead,82148,35.8283,-90.6304
U05033,Arkansas,Crawford,53247,35.583,-94.2362
U05035,Arkansas,Crittenden,50866,35.2119,-90.3153
U05037,Arkansas,Cross,19526,35.2913,-90.7739
U05039,Arkansas,Dallas,9210,33.9678,-92.654
U05041,Arkansas,Desha,15341,33.8287,-91.2444
U05043,Arkansas,Drew,18723,33.5872,-91.7228
U05045,Arkansas,Faulkner,86014,35.1464,-92.3247
U05047,Arkansas,Franklin,17771,35.5086,-93.8877
U05049,Arkansas,Fulton,11642,36.3834,-91.8192
U05051,Arkansas,Garland,88068,34.5789,-93.1469
U05053,Arkansas,Grant,16464,34.2881,-92.424
U05055,Arkansas,Greene,37331,36.1199,-90.5652
U05057,Arkansas,Hempstead,23587,33.7286,-93.6658
U05059,Arkansas,Hot Spring,30353,34.3152,-92.9441
U05061,Arkansas,Howard,14300,34.0832,-93.991
U05063,Arkansas,Independence,34233,35.7375,-91.5599
U05065,Arkansas,Izard,13249,36.0949,-91.9136
U05067,Arkansas,Jackson,18418,35.5966,-91.2232
U05069,Arkansas,Jefferson,84278,34.2777,-91.9307
U05071,Arkansas,Johnson,22781,35.5734,-93.4663
U05073,Arkansas,Lafayette,8559,33.2407,-93.6116
U05075,Arkansas,Lawrence,17774,36.0411,-91.1012
U05077,Arkansas,Lee,12580,34.7798,-90.7793
U05079,Arkansas,Lincoln,14492,33.9577,-91.7276
U05081,Arkansas,Little River,13628,33.6995,-94.2298
U05083,Arkansas,Logan,22486,35.2186,-93.7206
U05085,Arkansas,Lonoke,52828,34.7551,-91.8941
U05087,Arkansas,Madison,14243,36.0125,-93.7241
U05089,Arkansas,Marion,16140,36.2667,-92.6786
U05091,Arkansas,Miller,40443,33.3055,-93.9015
U05093,Arkansas,Mississippi,51979,35.7669,-90.0522
U05095,Arkansas,Monroe,10254,34.6795,-91.2033
U05097,Arkansas,Montgomery,9245,34.5457,-93.6641
U05099,Arkansas,Nevada,9955,33.6667,-93.3051
U05101,Arkansas,Newton,8608,35.9101,-93.2151
U05103,Arkansas,Ouachita,28790,33.5912,-92.8784
U05105,Arkansas,Perry,10209,34.9464,-92.9269
U05107,Arkansas,Phillips,26445,34.4258,-90.8484
U05109,Arkansas,Pike,11303,34.1582,-93.6587
U05111,Arkansas,Poinsett,25614,35.569,-90.6806
U05113,Arkansas,Polk,20229,34.4909,-94.2309
U05115,Arkansas,Pope,54469,35.4553,-93.0315
U05117,Arkansas,Prairie,9539,34.8282,-91.5572
U05119,Arkansas,Pulaski,361474,34.774,-92.3165
U05121,Arkansas,Randolph,18195,36.3413,-91.0284
U05123,Arkansas,St. Francis,29329,35.0144,-90.7422
U05125,Arkansas,Saline,83529,34.6485,-92.6745
U05127,Arkansas,Scott,10996,34.8589,-94.0636
U05129,Arkansas,Searcy,8261,35.9097,-92.6994
U05131,Arkansas,Sebastian,115071,35.197,-94.275
U05133,Arkansas,Sevier,15757,33.9946,-94.2433
U05135,Arkansas,Sharp,17119,36.1734,-91.4711
U05137,Arkansas,Stone,11499,35.857,-92.1405
U05139,Arkansas,Union,45629,33.1682,-92.5981
U05141,Arkansas,Van Buren,16192,35.583,-92.516
U05143,Arkansas,Washington,157715,35.9712,-94.2184
U05145,Arkansas,White,67165,35.2547,-91.7532
U05147,Arkansas,Woodruff,8741,35.1891,-91.2444
U05149,Arkansas,Yell,21139,34.9977,-93.4083
U06001,California,Alameda,1443741,37.6481,-121.9133
U06003,California,Alpine,1208,38.6176,-119.799
U06005,California,Amador,35100,38.4436,-120.6539
U06007,California,Butte,203171,39.666,-121.6019
U06009,California,Calaveras,40554,38.1878,-120.5551
U06011,California,Colusa,18804,39.1777,-122.2376
U06013,California,Contra Costa,948816,37.9195,-121.9515
U06015,California,Del Norte,27507,41.7499,-123.981
U06017,California,El Dorado,156299,38.7855,-120.5344
U06019,California,Fresno,799407,36.761,-119.655
U06021,California,Glenn,26453,39.6025,-122.4017
U06023,California,Humboldt,126518,40.7067,-123.9258
U06025,California,Imperial,142361,33.0408,-115.3554
U06027,California,Inyo,17945,36.562,-117.4039
U06029,California,Kern,661645,35.3466,-118.7295
U06031,California,Kings,129461,36.0725,-119.8155
U06033,California,Lake,58309,39.0948,-122.7468
U06035,California,Lassen,33828,40.7211,-120.6299
U06037,California,Los Angeles,9519338,34.1964,-118.2619
U06039,California,Madera,123109,37.21,-119.7499
U06041,California,Marin,247289,38.0518,-122.746
U06043,California,Mariposa,17130,37.57,-119.9129
U06045,California,Mendocino,86265,39.4324,-123.4429
U06047,California,Merced,210554,37.1948,-120.7228
U06049,California,Modoc,9449,41.5929,-120.7184
U06051,California,Mono,12853,37.9158,-118.8752
U06053,California,Monterey,401762,36.2401,-121.3156
U06055,California,Napa,124279,38.5074,-122.326
U06057,California,Nevada,92033,39.2952,-120.7734
U06059,California,Orange,2846289,33.6757,-117.7772
U06061,California,Placer,248399,39.062,-120.7227
U06063,California,Plumas,20824,39.9952,-120.8295
U06065,California,Riverside,1545387,33.7298,-116.0022
U06067,California,Sacramento,1223499,38.45,-121.3404
U06069,California,San Benito,53234,36.6107,-121.0853
U06071,California,San Bernardino,1709434,34.8572,-116.1812
U06073,California,San Diego,2813833,33.0236,-116.7761
U06075,California,San Francisco,776733,37.7272,-123.0322
U06077,California,San Joaquin,563598,37.935,-121.2722
U06079,California,San Luis Obispo,246681,35.3852,-120.4475
U06081,California,San Mateo,707161,37.4147,-122.3715
U06083,California,Santa Barbara,399347,34.5374,-120.0385
U06085,California,Santa Clara,1682585,37.2208,-121.6906
U06087,California,Santa Cruz,255602,37.0125,-122.0072
U06089,California,Shasta,163256,40.7605,-122.0435
U06091,California,Sierra,3555,39.5769,-120.522
U06093,California,Siskiyou,44301,41.588,-122.5333
U06095,California,Solano,394542,38.2672,-121.9396
U06097,California,Sonoma,458614,38.5326,-122.9452
U06099,California,Stanislaus,446997,37.5624,-121.0027
U06101,California,Sutter,78930,39.0353,-121.7028
U06103,California,Tehama,56039,40.1262,-122.2323
U06105,California,Trinity,13022,40.6477,-123.1144
U06107,California,Tulare,368021,36.2305,-118.7805
U06109,California,Tuolumne,54501,38.0215,-119.9647
U06111,California,Ventura,753197,34.3587,-119.1331
U06113,California,Yolo,168660,38.6793,-121.9032
U06115,California,Yuba,60219,39.27,-121.3443
U08001,Colorado,Adams,363857,39.8743,-104.3319
U08003,Colorado,Alamosa,14966,37.5684,-105.788
U08005,Colorado,Arapahoe,487967,39.6446,-104.3317
U08007,Colorado,Archuleta,9898,37.2024,-107.0509
U08009,Colorado,Baca,4517,37.3031,-102.5355
U08011,Colorado,Bent,5998,37.9319,-103.0776
U08013,Colorado,Boulder,291288,40.0948,-105.3984
U08015,Colorado,Chaffee,16242,38.7382,-106.317
U08017,Colorado,Cheyenne,2231,38.8354,-102.6046
U08019,Colorado,Clear Creek,9322,39.6894,-105.6708
U08021,Colorado,Conejos,8400,37.2134,-106.1764
U08023,Colorado,Costilla,3663,37.2775,-105.4289
U08025,Colorado,Crowley,5518,38.322,-103.7876
U08027,Colorado,Custer,3503,38.102,-105.3735
U08029,Colorado,Delta,27834,38.8618,-107.8648
U08031,Colorado,Denver,554636,39.7618,-104.8806
U08033,Colorado,Dolores,1844,37.7476,-108.5304
U08035,Colorado,Douglas,175766,39.3264,-104.9262
U08037,Colorado,Eagle,41659,39.6306,-106.6929
U08039,Colorado,Elbert,19872,39.3108,-104.1179
U08041,Colorado,El Paso,516929,38.8274,-104.5275
U08043,Colorado,Fremont,46145,38.4557,-105.4214
U08045,Colorado,Garfield,43791,39.5994,-107.9098
U08047,Colorado,Gilpin,4757,39.8611,-105.5289
U08049,Colorado,Grand,12442,40.1233,-106.0959
U08051,Colorado,Gunnison,13956,38.6697,-107.0781
U08053,Colorado,Hinsdale,790,37.8116,-107.3834
U08055,Colorado,Huerfano,7862,37.6878,-104.9599
U08057,Colorado,Jackson,1577,40.6634,-106.3292
U08059,Colorado,Jefferson,527056,39.5865,-105.2456
U08061,Colorado,Kiowa,1622,38.3885,-102.7562
U08063,Colorado,Kit Carson,8011,39.3053,-102.603
U08065,Colorado,Lake,7812,39.2043,-106.3497
U08067,Colorado,La Plata,43941,37.2874,-107.8397
U08069,Colorado,Larimer,251494,40.6631,-105.4821
U08071,Colorado,Las Animas,15207,37.3188,-104.0441
U08073,Colorado,Lincoln,6087,38.9937,-103.5076
U08075,Colorado,Logan,20504,40.7281,-103.0905
U08077,Colorado,Mesa,116255,39.0195,-108.4618
U08079,Colorado,Mineral,831,37.6515,-106.9323
U08081,Colorado,Moffat,13184,40.574,-108.2045
U08083,Colorado,Montezuma,23830,37.338,-108.5958
U08085,Colorado,Montrose,33432,38.4134,-108.263
U08087,Colorado,Morgan,27171,40.2624,-103.8071
U08089,Colorado,Otero,20311,37.8842,-103.7213
U08091,Colorado,Ouray,3742,38.1506,-107.7671
U08093,Colorado,Park,14523,39.1189,-105.7176
U08095,Colorado,Phillips,4480,40.5947,-102.3451
U08097,Colorado,Pitkin,14872,39.2175,-106.9159
U08099,Colorado,Prowers,14483,37.9582,-102.3922
U08101,Colorado,Pueblo,141472,38.1707,-104.4899
U08103,Colorado,Rio Blanco,5986,39.9726,-108.2007
U08105,Colorado,Rio Grande,12413,37.4858,-106.4532
U08107,Colorado,Routt,19690,40.4832,-106.9853
U08109,Colorado,Saguache,5917,38.034,-106.2467
U08111,Colorado,San Juan,558,37.7811,-107.6703
U08113,Colorado,San Miguel,6594,38.0094,-108.4273
U08115,Colorado,Sedgwick,2747,40.8716,-102.3554
U08117,Colorado,Summit,23548,39.621,-106.1376
U08119,Colorado,Teller,20555,38.872,-105.1826
U08121,Colorado,Washington,4926,39.9654,-103.2096
U08123,Colorado,Weld,180936,40.5558,-104.3836
U08125,Colorado,Yuma,9841,40.0006,-102.4226
U09001,Connecticut,Fairfield,882567,41.2281,-73.3668
U09003,Connecticut,Hartford,857183,41.8061,-72.7329
U09005,Connecticut,Litchfield,182193,41.7919,-73.2354
U09007,Connecticut,Middlesex,155071,41.4345,-72.5242
U09009,Connecticut,New Haven,824008,41.3497,-72.9002
U09011,Connecticut,New London,259088,41.4786,-72.1035
U09013,Connecticut,Tolland,136364,41.8581,-72.341
U09015,Connecticut,Windham,109091,41.825,-71.9907
U10001,Delaware,Kent,126697,39.0971,-75.503
U10003,Delaware,New Castle,500265,39.5759,-75.6441
U10005,Delaware,Sussex,156638,38.6775,-75.3355
U11001,District of Columbia,District of Columbia,572059,38.9041,-77.0171
U12001,Florida,Alachua,217955,29.6757,-82.3572
U12003,Florida,Baker,22259,30.3244,-82.3023
U12005,Florida,Bay,148217,30.2376,-85.6313
U12007,Florida,Bradford,26088,29.9469,-82.1668
U12009,Florida,Brevard,476230,28.2983,-80.7004
U12011,Florida,Broward,1623018,26.1935,-80.4767
U12013,Florida,Calhoun,13017,30.3888,-85.1979
U12015,Florida,Charlotte,141627,26.8688,-81.9409
U12017,Florida,Citrus,118085,28.8436,-82.5248
U12019,Florida,Clay,140814,29.9871,-81.8581
U12021,Florida,Collier,251377,26.1187,-81.4009
U12023,Florida,Columbia,56513,30.2213,-82.6231
U12027,Florida,De Soto,32209,27.1906,-81.8063
U12029,Florida,Dixie,13827,29.5809,-83.1957
U12031,Florida,Duval,778879,30.3352,-81.6481
U12033,Florida,Escambia,294410,30.6117,-87.339
U12035,Florida,Flagler,49832,29.4749,-81.2864
U12037,Florida,Franklin,11057,29.8102,-84.7992
U12039,Florida,Gadsden,45087,30.5792,-84.6128
U12041,Florida,Gilchrist,14437,29.7235,-82.7958
U12043,Florida,Glades,10576,26.9548,-81.1908
U12045,Florida,Gulf,13332,29.9073,-85.2565
U12047,Florida,Hamilton,13327,30.4911,-82.951
U12049,Florida,Hardee,26938,27.4928,-81.8216
U12051,Florida,Hendry,36210,26.5393,-81.1516
U12053,Florida,Hernando,130802,28.5679,-82.4648
U12055,Florida,Highlands,87366,27.3426,-81.3409
U12057,Florida,Hillsborough,998948,27.9066,-82.3496
U12059,Florida,Holmes,18564,30.8662,-85.813
U12061,Florida,Indian River,112947,27.7006,-80.5748
U12063,Florida,Jackson,46755,30.7878,-85.2104
U12065,Florida,Jefferson,12902,30.4246,-83.8909
U12067,Florida,Lafayette,7022,29.9901,-83.1785
U12069,Florida,Lake,210528,28.7641,-81.7123
U12071,Florida,Lee,440888,26.5521,-81.8922
U12073,Florida,Leon,239452,30.4593,-84.2778
U12075,Florida,Levy,34450,29.2844,-82.7835
U12077,Florida,Liberty,7021,30.2598,-84.8686
U12079,Florida,Madison,18733,30.4472,-83.4704
U12081,Florida,Manatee,264002,27.4814,-82.3658
U12083,Florida,Marion,258916,29.2028,-82.0431
U12085,Florida,Martin,126731,27.08,-80.3982
U12086,Florida,Miami-Dade,2253362,25.6105,-80.499
U12087,Florida,Monroe,79589,25.601,-81.2068
U12089,Florida,Nassau,57663,30.6059,-81.7649
U12091,Florida,Okaloosa,170498,30.6659,-86.5942
U12093,Florida,Okeechobee,35910,27.3856,-80.8874
U12095,Florida,Orange,896344,28.5144,-81.3233
U12097,Florida,Osceola,172493,28.059,-81.1393
U12099,Florida,Palm Beach,1131184,26.6458,-80.4487
U12101,Florida,Pasco,344765,28.302,-82.4557
U12103,Florida,Pinellas,921482,27.9031,-82.7395
U12105,Florida,Polk,483924,27.9531,-81.6928
U12107,Florida,Putnam,70423,29.606,-81.7409
U12109,Florida,St. Johns,123135,29.8906,-81.3839
U12111,Florida,St. Lucie,192695,27.3808,-80.4434
U12113,Florida,Santa Rosa,117743,30.7036,-87.0143
U12115,Florida,Sarasota,325957,27.1844,-82.3658
U12117,Florida,Seminole,365196,28.6901,-81.132
U12119,Florida,Sumter,53345,28.7143,-82.0747
U12121,Florida,Suwannee,34844,30.1892,-82.9928
U12123,Florida,Taylor,19256,30.0169,-83.6164
U12125,Florida,Union,13442,30.0543,-82.3669
U12127,Florida,Volusia,443343,29.0576,-81.1618
U12129,Florida,Wakulla,22863,30.1404,-84.3751
U12131,Florida,Walton,40601,30.6312,-86.1766
U12133,Florida,Washington,20973,30.6022,-85.6628
U13001,Georgia,Appling,17419,31.7397,-82.2901
U13003,Georgia,Atkinson,7609,31.3006,-82.8836
U13005,Georgia,Bacon,10103,31.5633,-82.3879
U13007,Georgia,Baker,4074,31.3196,-84.4549
U13009,Georgia,Baldwin,44700,33.0595,-83.2554
U13011,Georgia,Banks,14422,34.3519,-83.4984
U13013,Georgia,Barrow,46144,33.992,-83.7123
U13015,Georgia,Bartow,76019,34.2409,-84.8382
U13017,Georgia,Ben Hill,17484,31.7408,-83.1472
U13019,Georgia,Berrien,16235,31.2743,-83.2319
U13021,Georgia,Bibb,153887,32.8088,-83.6942
U13023,Georgia,Bleckley,11666,32.4354,-83.3317
U13025,Georgia,Brantley,14629,31.1973,-81.983
U13027,Georgia,Brooks,16450,30.8337,-83.589
U13029,Georgia,Bryan,23417,32.018,-81.4385
U13031,Georgia,Bulloch,55983,32.3934,-81.7438
U13033,Georgia,Burke,22243,33.0637,-82.0039
U13035,Georgia,Butts,19522,33.2904,-83.9582
U13037,Georgia,Calhoun,6320,31.5213,-84.6263
U13039,Georgia,Camden,43664,30.9164,-81.6365
U13043,Georgia,Candler,9577,32.404,-82.0714
U13045,Georgia,Carroll,87268,33.5822,-85.0805
U13047,Georgia,Catoosa,53282,34.8994,-85.1374
U13049,Georgia,Charlton,10282,30.7799,-82.1396
U13051,Georgia,Chatham,232048,31.9748,-81.0918
U13053,Georgia,Chattahoochee,14882,32.3474,-84.788
U13055,Georgia,Chattooga,25470,34.4742,-85.3453
U13057,Georgia,Cherokee,141903,34.2443,-84.4751
U13059,Georgia,Clarke,101489,33.9522,-83.3671
U13061,Georgia,Clay,3357,31.6198,-84.9926
U13063,Georgia,Clayton,236517,33.5522,-84.413
U13065,Georgia,Clinch,6878,30.9177,-82.7026
U13067,Georgia,Cobb,607751,33.9399,-84.5742
U13069,Georgia,Coffee,37413,31.5492,-82.8449
U13071,Georgia,Colquitt,42053,31.1898,-83.7697
U13073,Georgia,Columbia,89288,33.5506,-82.2513
U13075,Georgia,Cook,15771,31.1529,-83.4296
U13077,Georgia,Coweta,89215,33.3529,-84.7621
U13079,Georgia,Crawford,12495,32.7094,-83.9792
U13081,Georgia,Crisp,21996,31.9148,-83.7533
U13083,Georgia,Dade,15154,34.8524,-85.5062
U13085,Georgia,Dawson,15999,34.4428,-84.1733
U13087,Georgia,Decatur,28240,30.878,-84.5777
U13089,Georgia,De Kalb,665865,33.7707,-84.2263
U13091,Georgia,Dodge,19171,32.1607,-83.1568
U13093,Georgia,Dooly,11525,32.152,-83.8072
U13095,Georgia,Dougherty,96065,31.5351,-84.2144
U13097,Georgia,Douglas,92174,33.6993,-84.7659
U13099,Georgia,Early,12354,31.3242,-84.9067
U13101,Georgia,Echols,3754,30.7085,-82.8361
U13103,Georgia,Effingham,37535,32.3617,-81.3433
U13105,Georgia,Elbert,20511,34.115,-82.8421
U13107,Georgia,Emanuel,21837,32.5911,-82.2998
U13109,Georgia,Evans,10495,32.1519,-81.8876
U13111,Georgia,Fannin,19798,34.8638,-84.3193
U13113,Georgia,Fayette,91263,33.4127,-84.4939
U13115,Georgia,Floyd,90565,34.2637,-85.2137
U13117,Georgia,Forsyth,98407,34.2251,-84.1273
U13119,Georgia,Franklin,20285,34.3752,-83.2273
U13121,Georgia,Fulton,816006,33.79,-84.4682
U13123,Georgia,Gilmer,23456,34.6905,-84.454
U13125,Georgia,Glascock,2556,33.2275,-82.6069
U13127,Georgia,Glynn,67568,31.2127,-81.4965
U13129,Georgia,Gordon,44104,34.5097,-84.8739
U13131,Georgia,Grady,23659,30.8759,-84.2448
U13133,Georgia,Greene,14406,33.5768,-83.1671
U13135,Georgia,Gwinnett,588448,33.9591,-84.0229
U13137,Georgia,Habersham,35902,34.6351,-83.5264
U13139,Georgia,Hall,139277,34.3176,-83.8185
U13141,Georgia,Hancock,10076,33.2692,-83.0005
U13143,Georgia,Haralson,25690,33.7952,-85.2201
U13145,Georgia,Harris,23695,32.7315,-84.9124
U13147,Georgia,Hart,22997,34.3487,-82.9633
U13149,Georgia,Heard,11012,33.291,-85.1396
U13151,Georgia,Henry,119341,33.4529,-84.1544
U13153,Georgia,Houston,110765,32.4584,-83.6629
U13155,Georgia,Irwin,9931,31.6043,-83.277
U13157,Georgia,Jackson,41589,34.1342,-83.5651
U13159,Georgia,Jasper,11426,33.3149,-83.6879
U13161,Georgia,Jeff Davis,12684,31.8116,-82.6368
U13163,Georgia,Jefferson,17266,33.0519,-82.419
U13165,Georgia,Jenkins,8575,32.7946,-81.9715
U13167,Georgia,Johnson,8560,32.6898,-82.6614
U13169,Georgia,Jones,23639,33.0202,-83.5623
U13171,Georgia,Lamar,15912,33.0745,-84.1467
U13173,Georgia,Lanier,7241,31.0382,-83.0632
U13175,Georgia,Laurens,44874,32.3932,-82.9263
U13177,Georgia,Lee,24757,31.8184,-84.1467
U13179,Georgia,Liberty,61610,31.8072,-81.458
U13181,Georgia,Lincoln,8348,33.7922,-82.4483
U13183,Georgia,Long,10304,31.7496,-81.7429
U13185,Georgia,Lowndes,92115,30.8337,-83.269
U13187,Georgia,Lumpkin,21016,34.5681,-83.9988
U13189,Georgia,McDuffie,21231,33.4825,-82.4732
U13191,Georgia,McIntosh,10847,31.483,-81.3702
U13193,Georgia,Macon,14074,32.3662,-84.0522
U13195,Georgia,Madison,25730,34.1285,-83.2036
U13197,Georgia,Marion,7144,32.3595,-84.5296
U13199,Georgia,Meriwether,22534,33.0302,-84.6633
U13201,Georgia,Miller,6383,31.1629,-84.7304
U13205,Georgia,Mitchell,23932,31.2289,-84.1924
U13207,Georgia,Monroe,21757,33.0174,-83.9229
U13209,Georgia,Montgomery,8270,32.1721,-82.5333
U13211,Georgia,Morgan,15457,33.5937,-83.4923
U13213,Georgia,Murray,36506,34.7971,-84.738
U13215,Georgia,Muscogee,186291,32.5102,-84.8749
U13217,Georgia,Newton,62001,33.544,-83.8552
U13219,Georgia,Oconee,26225,33.8341,-83.4377
U13221,Georgia,Oglethorpe,12635,33.8668,-83.0741
U13223,Georgia,Paulding,81678,33.9209,-84.867
U13225,Georgia,Peach,23668,32.5713,-83.832
U13227,Georgia,Pickens,22983,34.4566,-84.4903
U13229,Georgia,Pierce,15636,31.354,-82.2104
U13231,Georgia,Pike,13688,33.0908,-84.3866
U13233,Georgia,Polk,38127,33.996,-85.1868
U13235,Georgia,Pulaski,9588,32.2388,-83.4819
U13237,Georgia,Putnam,18812,33.3211,-83.3718
U13239,Georgia,Quitman,2598,31.8615,-85.0093
U13241,Georgia,Rabun,15050,34.883,-83.4047
U13243,Georgia,Randolph,7791,31.7627,-84.7523
U13245,Georgia,Richmond,199775,33.3615,-82.075
U13247,Georgia,Rockdale,70111,33.6521,-84.0264
U13249,Georgia,Schley,3766,32.2634,-84.3227
U13251,Georgia,Screven,15374,32.7448,-81.6176
U13253,Georgia,Seminole,9369,30.9339,-84.8676
U13255,Georgia,Spalding,58417,33.2624,-84.2861
U13257,Georgia,Stephens,25435,34.5529,-83.2902
U13259,Georgia,Stewart,5252,32.0732,-84.8349
U13261,Georgia,Sumter,33200,32.0422,-84.2043
U13263,Georgia,Talbot,6498,32.7046,-84.53
U13265,Georgia,Taliaferro,2077,33.5593,-82.8752
U13267,Georgia,Tattnall,22305,32.0438,-82.0592
U13269,Georgia,Taylor,8815,32.5547,-84.2514
U13271,Georgia,Telfair,11794,31.9136,-82.9311
U13273,Georgia,Terrell,10970,31.7772,-84.4394
U13275,Georgia,Thomas,42737,30.8646,-83.9198
U13277,Georgia,Tift,38407,31.457,-83.5259
U13279,Georgia,Toombs,26067,32.1267,-82.3321
U13281,Georgia,Towns,9319,34.9027,-83.7322
U13283,Georgia,Treutlen,6854,32.4096,-82.5709
U13285,Georgia,Troup,58779,33.0345,-85.0284
U13287,Georgia,Turner,9504,31.7182,-83.6286
U13289,Georgia,Twiggs,10590,32.6658,-83.4259
U13291,Georgia,Union,17289,34.8338,-83.9896
U13293,Georgia,Upson,27597,32.8818,-84.2923
U13295,Georgia,Walker,61053,34.7358,-85.3054
U13297,Georgia,Walton,60687,33.7826,-83.7342
U13299,Georgia,Ware,35483,31.0509,-82.4215
U13301,Georgia,Warren,6336,33.4192,-82.688
U13303,Georgia,Washington,21176,32.9718,-82.7981
U13305,Georgia,Wayne,26565,31.5478,-81.9124
U13307,Georgia,Webster,2390,32.0466,-84.5532
U13309,Georgia,Wheeler,6179,32.1093,-82.7387
U13311,Georgia,White,19944,34.6437,-83.7437
U13313,Georgia,Whitfield,83525,34.8017,-84.9685
U13315,Georgia,Wilcox,8577,31.9627,-83.4383
U13317,Georgia,Wilkes,10687,33.779,-82.7479
U13319,Georgia,Wilkinson,10220,32.8043,-83.1756
U13321,Georgia,Worth,21967,31.5518,-83.85
U16001,Idaho,Ada,300904,43.4479,-116.2445
U16003,Idaho,Adams,3476,44.8846,-116.4319
U16005,Idaho,Bannock,75565,42.6929,-112.229
U16007,Idaho,Bear Lake,6411,42.2858,-111.3274
U16009,Idaho,Benewah,9171,47.2185,-116.6335
U16011,Idaho,Bingham,41735,43.2164,-112.3992
U16013,Idaho,Blaine,18991,43.3945,-113.9553
U16015,Idaho,Boise,6670,43.9873,-115.7151
U16017,Idaho,Bonner,36835,48.3125,-116.5969
U16019,Idaho,Bonneville,82522,43.3952,-111.6219
U16021,Idaho,Boundary,9871,48.7731,-116.5246
U16023,Idaho,Butte,2899,43.6851,-113.1776
U16025,Idaho,Camas,991,43.4634,-114.8044
U16027,Idaho,Canyon,131441,43.6231,-116.7085
U16029,Idaho,Caribou,7304,42.7863,-111.5442
U16031,Idaho,Cassia,21416,42.2886,-113.6055
U16033,Idaho,Clark,1022,44.2863,-112.3611
U16035,Idaho,Clearwater,8930,46.6726,-115.6535
U16037,Idaho,Custer,4342,44.2733,-114.2523
U16039,Idaho,Elmore,29130,43.3948,-115.4708
U16041,Idaho,Franklin,11329,42.1736,-111.823
U16043,Idaho,Fremont,11819,44.2181,-111.4844
U16045,Idaho,Gem,15181,44.0615,-116.3988
U16047,Idaho,Gooding,14155,42.9732,-114.8214
U16049,Idaho,Idaho,15511,45.8492,-115.4674
U16051,Idaho,Jefferson,19155,43.797,-112.3186
U16053,Idaho,Jerome,18342,42.6912,-114.263
U16055,Idaho,Kootenai,108685,47.6771,-116.6949
U16057,Idaho,Latah,34935,46.8189,-116.731
U16059,Idaho,Lemhi,7806,44.9288,-113.8878
U16061,Idaho,Lewis,3747,46.2363,-116.4238
U16063,Idaho,Lincoln,4044,42.9862,-114.1539
U16065,Idaho,Madison,27467,43.7897,-111.6565
U16067,Idaho,Minidoka,20174,42.8569,-113.64
U16069,Idaho,Nez Perce,37410,46.3338,-116.7609
U16071,Idaho,Oneida,4125,42.1839,-112.5205
U16073,Idaho,Owyhee,10644,42.5931,-116.1427
U16075,Idaho,Payette,20578,44.0027,-116.7487
U16077,Idaho,Power,7538,42.6941,-112.8444
U16079,Idaho,Shoshone,13771,47.3477,-115.8851
U16081,Idaho,Teton,5999,43.761,-111.2118
U16083,Idaho,Twin Falls,64284,42.3523,-114.6656
U16085,Idaho,Valley,7651,44.7715,-115.6379
U16087,Idaho,Washington,9977,44.4482,-116.7978
U17001,Illinois,Adams,68277,39.9861,-91.195
U17003,Illinois,Alexander,9590,37.1837,-89.3495
U17005,Illinois,Bond,17633,38.8859,-89.4366
U17007,Illinois,Boone,41786,42.319,-88.8243
U17009,Illinois,Brown,6950,39.9621,-90.7503
U17011,Illinois,Bureau,35503,41.4013,-89.5284
U17013,Illinois,Calhoun,5084,39.1643,-90.6663
U17015,Illinois,Carroll,16674,42.0591,-89.9265
U17017,Illinois,Cass,13695,39.9692,-90.2457
U17019,Illinois,Champaign,179669,40.1392,-88.1972
U17021,Illinois,Christian,35372,39.5455,-89.2796
U17023,Illinois,Clark,17008,39.3324,-87.7917
U17025,Illinois,Clay,14560,38.7473,-88.4838
U17027,Illinois,Clinton,35535,38.6064,-89.4231
U17029,Illinois,Coles,53196,39.5137,-88.2208
U17031,Illinois,Cook,5376741,41.8943,-87.6455
U17033,Illinois,Crawford,20452,39.0037,-87.7572
U17035,Illinois,Cumberland,11253,39.2731,-88.2406
U17037,Illinois,De Kalb,88969,41.8946,-88.769
U17039,Illinois,Dewitt,16798,40.1815,-88.9019
U17041,Illinois,Douglas,19922,39.7661,-88.2229
U17043,Illinois,Du Page,904161,41.8521,-88.086
U17045,Illinois,Edgar,19704,39.679,-87.7471
U17047,Illinois,Edwards,6971,38.4171,-88.0479
U17049,Illinois,Effingham,34264,39.0477,-88.5928
U17051,Illinois,Fayette,21802,39.0011,-89.0179
U17053,Illinois,Ford,14241,40.5944,-88.2247
U17055,Illinois,Franklin,39018,37.9918,-88.9262
U17057,Illinois,Fulton,38250,40.4657,-90.2068
U17059,Illinois,Gallatin,6445,37.7687,-88.228
U17061,Illinois,Greene,14761,39.3554,-90.3878
U17063,Illinois,Grundy,37535,41.2924,-88.4011
U17065,Illinois,Hamilton,8621,38.0852,-88.539
U17067,Illinois,Hancock,20121,40.4058,-91.168
U17069,Illinois,Hardin,4800,37.5179,-88.2661
U17071,Illinois,Henderson,8213,40.8151,-90.9385
U17073,Illinois,Henry,51020,41.35,-90.1308
U17075,Illinois,Iroquois,31334,40.7489,-87.8336
U17077,Illinois,Jackson,59612,37.7861,-89.3812
U17079,Illinois,Jasper,10117,39.0049,-88.1508
U17081,Illinois,Jefferson,40045,38.3008,-88.9242
U17083,Illinois,Jersey,21668,39.0802,-90.3614
U17085,Illinois,Jo Daviess,22289,42.3624,-90.2115
U17087,Illinois,Johnson,12878,37.4608,-88.883
U17089,Illinois,Kane,404119,41.9396,-88.428
U17091,Illinois,Kankakee,103833,41.1395,-87.8611
U17093,Illinois,Kendall,54544,41.5881,-88.4306
U17095,Illinois,Knox,55836,40.9309,-90.2138
U17097,Illinois,Lake,644356,42.3264,-87.4361
U17099,Illinois,La Salle,111509,41.3433,-88.8859
U17101,Illinois,Lawrence,15452,38.719,-87.7302
U17103,Illinois,Lee,36062,41.7474,-89.2994
U17105,Illinois,Livingston,39678,40.8944,-88.5529
U17107,Illinois,Logan,31183,40.1291,-89.3653
U17109,Illinois,McDonough,32913,40.4558,-90.6776
U17111,Illinois,McHenry,260077,42.3243,-88.4522
U17113,Illinois,Mclean,150433,40.4946,-88.8445
U17115,Illinois,Macon,114706,39.8602,-88.9615
U17117,Illinois,Macoupin,49019,39.2659,-89.9263
U17119,Illinois,Madison,258941,38.8271,-89.9002
U17121,Illinois,Marion,41691,38.6484,-88.9202
U17123,Illinois,Marshall,13180,41.0311,-89.3424
U17125,Illinois,Mason,16038,40.237,-89.9136
U17127,Illinois,Massac,15161,37.2161,-88.7057
U17129,Illinois,Menard,12486,40.0226,-89.7941
U17131,Illinois,Mercer,16957,41.2048,-90.7414
U17133,Illinois,Monroe,27619,38.278,-90.1791
U17135,Illinois,Montgomery,30652,39.2281,-89.478
U17137,Illinois,Morgan,36616,39.7168,-90.2023
U17139,Illinois,Moultrie,14287,39.6369,-88.6257
U17141,Illinois,Ogle,51032,42.0419,-89.3202
U17143,Illinois,Peoria,183433,40.786,-89.7674
U17145,Illinois,Perry,23094,38.0844,-89.3685
U17147,Illinois,Piatt,16365,40.0091,-88.5923
U17149,Illinois,Pike,17384,39.6251,-90.889
U17151,Illinois,Pope,4413,37.4172,-88.5424
U17153,Illinois,Pulaski,7348,37.2156,-89.1278
U17155,Illinois,Putnam,6086,41.1989,-89.2984
U17157,Illinois,Randolph,33893,38.0565,-89.8212
U17159,Illinois,Richland,16149,38.7116,-88.0857
U17161,Illinois,Rock Island,149374,41.4684,-90.5722
U17163,Illinois,St. Clair,256082,38.4702,-89.9285
U17165,Illinois,Saline,26733,37.7517,-88.545
U17167,Illinois,Sangamon,188951,39.7564,-89.6623
U17169,Illinois,Schuyler,7189,40.1569,-90.6135
U17171,Illinois,Scott,5537,39.637,-90.4778
U17173,Illinois,Shelby,22893,39.3849,-88.7989
U17175,Illinois,Stark,6332,41.0969,-89.7974
U17177,Illinois,Stephenson,48979,42.3497,-89.666
U17179,Illinois,Tazewell,128485,40.5081,-89.5163
U17181,Illinois,Union,18293,37.4751,-89.2529
U17183,Illinois,Vermilion,83919,40.1867,-87.7268
U17185,Illinois,Wabash,12937,38.4458,-87.8392
U17187,Illinois,Warren,18735,40.8504,-90.6202
U17189,Illinois,Washington,15148,38.3531,-89.4172
U17191,Illinois,Wayne,17151,38.4319,-88.4321
U17193,Illinois,White,15371,38.0874,-88.1786
U17195,Illinois,Whiteside,60653,41.7506,-89.911
U17197,Illinois,Will,502266,41.4485,-87.9785
U17199,Illinois,Williamson,61296,37.7304,-88.93
U17201,Illinois,Winnebago,278418,42.3374,-89.1612
U17203,Illinois,Woodford,35469,40.7896,-89.2103
U18001,Indiana,Adams,33625,40.7457,-84.9361
U18003,Indiana,Allen,331849,41.0919,-85.0722
U18005,Indiana,Bartholomew,71435,39.2058,-85.898
U18007,Indiana,Benton,9421,40.6083,-87.3155
U18009,Indiana,Blackford,14048,40.4727,-85.3237
U18011,Indiana,Boone,46107,40.0509,-86.469
U18013,Indiana,Brown,14957,39.1926,-86.2394
U18015,Indiana,Carroll,20165,40.585,-86.5651
U18017,Indiana,Cass,40930,40.7538,-86.3552
U18019,Indiana,Clark,96472,38.4762,-85.7111
U18021,Indiana,Clay,26556,39.394,-87.1158
U18023,Indiana,Clinton,33866,40.3059,-86.4776
U18025,Indiana,Crawford,10743,38.2894,-86.4409
U18027,Indiana,Daviess,29820,38.6962,-87.077
U18029,Indiana,Dearborn,46109,39.1515,-84.9735
U18031,Indiana,Decatur,24555,39.306,-85.4998
U18033,Indiana,De Kalb,40285,41.4012,-85.0002
U18035,Indiana,Delaware,118769,40.2272,-85.3989
U18037,Indiana,Dubois,39674,38.3733,-86.8734
U18039,Indiana,Elkhart,182791,41.6007,-85.864
U18041,Indiana,Fayette,25588,39.6397,-85.185
U18043,Indiana,Floyd,70823,38.3179,-85.9115
U18045,Indiana,Fountain,17954,40.1213,-87.2348
U18047,Indiana,Franklin,22151,39.4098,-85.067
U18049,Indiana,Fulton,20511,41.0504,-86.265
U18051,Indiana,Gibson,32500,38.3174,-87.5806
U18053,Indiana,Grant,73403,40.5158,-85.6549
U18055,Indiana,Greene,33157,39.0486,-87.0052
U18057,Indiana,Hamilton,182740,40.0499,-86.0206
U18059,Indiana,Hancock,55391,39.8226,-85.7729
U18061,Indiana,Harrison,34325,38.1864,-86.1037
U18063,Indiana,Hendricks,104093,39.7687,-86.5103
U18065,Indiana,Henry,48508,39.9296,-85.3973
U18067,Indiana,Howard,84964,40.4835,-86.1141
U18069,Indiana,Huntington,38075,40.8264,-85.4786
U18071,Indiana,Jackson,41335,38.912,-86.0425
U18073,Indiana,Jasper,30043,41.0177,-87.1188
U18075,Indiana,Jay,21806,40.435,-85.0034
U18077,Indiana,Jefferson,31705,38.7836,-85.4401
U18079,Indiana,Jennings,27554,38.9962,-85.6281
U18081,Indiana,Johnson,115209,39.496,-86.0946
U18083,Indiana,Knox,39256,38.6887,-87.4202
U18085,Indiana,Kosciusko,74057,41.2443,-85.8616
U18087,Indiana,Lagrange,34909,41.6425,-85.4263
U18089,Indiana,Lake,484564,41.4722,-87.3743
U18091,Indiana,La Porte,110106,41.549,-86.7447
U18093,Indiana,Lawrence,45922,38.8398,-86.4878
U18095,Indiana,Madison,133358,40.1662,-85.7225
U18097,Indiana,Marion,860454,39.783,-86.1358
U18099,Indiana,Marshall,45128,41.325,-86.269
U18101,Indiana,Martin,10369,38.7053,-86.8018
U18103,Indiana,Miami,36082,40.7729,-86.0443
U18105,Indiana,Monroe,120563,39.1608,-86.5233
U18107,Indiana,Montgomery,37629,40.0403,-86.8927
U18109,Indiana,Morgan,66689,39.4826,-86.4475
U18111,Indiana,Newton,14566,40.9624,-87.4022
U18113,Indiana,Noble,46275,41.4008,-85.4178
U18115,Indiana,Ohio,5623,38.9405,-84.9643
U18117,Indiana,Orange,19306,38.5474,-86.4893
U18119,Indiana,Owen,21786,39.3173,-86.8388
U18121,Indiana,Parke,17241,39.7743,-87.1969
U18123,Indiana,Perry,18899,38.0814,-86.6265
U18125,Indiana,Pike,12837,38.3979,-87.2325
U18127,Indiana,Porter,146798,41.5099,-87.0713
U18129,Indiana,Posey,27061,38.0276,-87.8687
U18131,Indiana,Pulaski,13755,41.0453,-86.6925
U18133,Indiana,Putnam,36019,39.6655,-86.8533
U18135,Indiana,Randolph,27401,40.1644,-85.005
U18137,Indiana,Ripley,26523,39.1002,-85.2605
U18139,Indiana,Rush,18261,39.6223,-85.4665
U18141,Indiana,St. Joseph,265559,41.6177,-86.2882
U18143,Indiana,Scott,22960,38.6794,-85.7519
U18145,Indiana,Shelby,43445,39.5241,-85.7922
U18147,Indiana,Spencer,20391,38.0098,-87.0106
U18149,Indiana,Starke,23556,41.2832,-86.6476
U18151,Indiana,Steuben,33214,41.6434,-85.0025
U18153,Indiana,Sullivan,21751,39.0892,-87.4158
U18155,Indiana,Switzerland,9065,38.8258,-85.0297
U18157,Indiana,Tippecanoe,148955,40.3893,-86.8939
U18159,Indiana,Tipton,16577,40.3102,-86.0562
U18161,Indiana,Union,7349,39.6231,-84.9252
U18163,Indiana,Vanderburgh,171922,38.0201,-87.5862
U18165,Indiana,Vermillion,16788,39.854,-87.4621
U18167,Indiana,Vigo,105848,39.4291,-87.3904
U18169,Indiana,Wabash,34960,40.8437,-85.7952
U18171,Indiana,Warren,8419,40.3527,-87.3758
U18173,Indiana,Warrick,52383,38.0978,-87.272
U18175,Indiana,Washington,27223,38.6006,-86.1048
U18177,Indiana,Wayne,71097,39.8631,-85.0067
U18179,Indiana,Wells,27600,40.7353,-85.213
U18181,Indiana,White,25267,40.751,-86.8643
U18183,Indiana,Whitley,30707,41.1364,-85.5019
U19001,Iowa,Adair,8243,41.3285,-94.4782
U19003,Iowa,Adams,4482,41.0217,-94.6969
U19005,Iowa,Allamakee,14675,43.275,-91.3828
U19007,Iowa,Appanoose,13721,40.7447,-92.8703
U19009,Iowa,Audubon,6830,41.6792,-94.9043
U19011,Iowa,Benton,25308,42.0925,-92.0576
U19013,Iowa,Black Hawk,128012,42.4729,-92.3061
U19015,Iowa,Boone,26224,42.0386,-93.9391
U19017,Iowa,Bremer,23325,42.7809,-92.3276
U19019,Iowa,Buchanan,21093,42.4703,-91.8387
U19021,Iowa,Buena Vista,20411,42.7415,-95.1414
U19023,Iowa,Butler,15305,42.7347,-92.7801
U19025,Iowa,Calhoun,11115,42.3862,-94.6437
U19027,Iowa,Carroll,21421,42.0395,-94.8676
U19029,Iowa,Cass,14684,41.3338,-94.9333
U19031,Iowa,Cedar,18187,41.7724,-91.1322
U19033,Iowa,Cerro Gordo,46447,43.0752,-93.2513
U19035,Iowa,Cherokee,13035,42.7427,-95.6333
U19037,Iowa,Chickasaw,13095,43.0597,-92.3172
U19039,Iowa,Clarke,9133,41.0292,-93.7841
U19041,Iowa,Clay,17372,43.0798,-95.1497
U19043,Iowa,Clayton,18678,42.841,-91.3235
U19045,Iowa,Clinton,50149,41.8981,-90.5342
U19047,Iowa,Crawford,16942,42.0431,-95.3891
U19049,Iowa,Dallas,40750,41.6853,-94.0407
U19051,Iowa,Davis,8541,40.7481,-92.4103
U19053,Iowa,Decatur,8689,40.7364,-93.7846
U19055,Iowa,Delaware,18404,42.473,-91.3594
U19057,Iowa,Des Moines,42351,40.9153,-91.1869
U19059,Iowa,Dickinson,16424,43.3896,-95.1961
U19061,Iowa,Dubuque,89143,42.4635,-90.8788
U19063,Iowa,Emmet,11027,43.378,-94.6694
U19065,Iowa,Fayette,22008,42.8645,-91.8394
U19067,Iowa,Floyd,16900,43.0527,-92.7874
U19069,Iowa,Franklin,10704,42.7365,-93.2714
U19071,Iowa,Fremont,8010,40.7437,-95.5995
U19073,Iowa,Greene,10366,42.0425,-94.3887
U19075,Iowa,Grundy,12369,42.4033,-92.7903
U19077,Iowa,Guthrie,11353,41.6836,-94.5013
U19079,Iowa,Hamilton,16438,42.3908,-93.7092
U19081,Iowa,Hancock,12100,43.0754,-93.7437
U19083,Iowa,Hardin,18812,42.39,-93.2411
U19085,Iowa,Harrison,15666,41.6886,-95.8271
U19087,Iowa,Henry,20336,40.9859,-91.5443
U19089,Iowa,Howard,9932,43.3653,-92.3219
U19091,Iowa,Humboldt,10381,42.7822,-94.2028
U19093,Iowa,Ida,7837,42.3919,-95.5074
U19095,Iowa,Iowa,15671,41.6839,-92.0591
U19097,Iowa,Jackson,20296,42.1643,-90.5746
U19099,Iowa,Jasper,37213,41.6857,-93.053
U19101,Iowa,Jefferson,16181,41.0069,-91.9671
U19103,Iowa,Johnson,111006,41.6687,-91.5888
U19105,Iowa,Jones,20221,42.1251,-91.1169
U19107,Iowa,Keokuk,11400,41.3312,-92.1677
U19109,Iowa,Kossuth,17163,43.2125,-94.214
U19111,Iowa,Lee,38052,40.6476,-91.4772
U19113,Iowa,Linn,191701,42.078,-91.5977
U19115,Iowa,Louisa,12183,41.2182,-91.257
U19117,Iowa,Lucas,9422,41.0333,-93.3315
U19119,Iowa,Lyon,11763,43.3836,-96.2072
U19121,Iowa,Madison,14019,41.3306,-94.0152
U19123,Iowa,Mahaska,22335,41.3308,-92.6364
U19125,Iowa,Marion,32052,41.3315,-93.0938
U19127,Iowa,Marshall,39311,42.0417,-92.9815
U19129,Iowa,Mills,14547,41.0337,-95.6191
U19131,Iowa,Mitchell,10874,43.3486,-92.7845
U19133,Iowa,Monona,10020,42.0494,-95.9566
U19135,Iowa,Monroe,8016,41.0288,-92.8696
U19137,Iowa,Montgomery,11771,41.0217,-95.1578
U19139,Iowa,Muscatine,41722,41.4838,-91.1187
U19141,Iowa,Obrien,15102,43.0837,-95.6256
U19143,Iowa,Osceola,7003,43.3785,-95.6338
U19145,Iowa,Page,16976,40.7391,-95.1443
U19147,Iowa,Palo Alto,10147,43.0759,-94.6673
U19149,Iowa,Plymouth,24849,42.7376,-96.2159
U19151,Iowa,Pocahontas,8662,42.734,-94.6783
U19153,Iowa,Polk,374601,41.6843,-93.5697
U19155,Iowa,Pottawattamie,87704,41.3402,-95.5449
U19157,Iowa,Poweshiek,18815,41.6845,-92.5229
U19159,Iowa,Ringgold,5469,40.7353,-94.2443
U19161,Iowa,Sac,11529,42.3875,-95.1052
U19163,Iowa,Scott,158668,41.6417,-90.6223
U19165,Iowa,Shelby,13173,41.679,-95.3089
U19167,Iowa,Sioux,31589,43.0829,-96.1779
U19169,Iowa,Story,79981,42.0375,-93.4661
U19171,Iowa,Tama,18103,42.0748,-92.5294
U19173,Iowa,Taylor,6958,40.7379,-94.6971
U19175,Iowa,Union,12309,41.0286,-94.2451
U19177,Iowa,Van Buren,7809,40.7541,-91.9529
U19179,Iowa,Wapello,36051,41.0313,-92.4095
U19181,Iowa,Warren,40671,41.3368,-93.5644
U19183,Iowa,Washington,20670,41.3294,-91.7251
U19185,Iowa,Wayne,6730,40.74,-93.3326
U19187,Iowa,Webster,40235,42.4344,-94.1792
U19189,Iowa,Winnebago,11723,43.3781,-93.7435
U19191,Iowa,Winneshiek,21310,43.293,-91.8508
U19193,Iowa,Woodbury,103877,42.3932,-96.0533
U19195,Iowa,Worth,7909,43.3735,-93.2485
U19197,Iowa,Wright,14334,42.733,-93.7347
U20001,Kansas,Allen,14385,37.8842,-95.3009
U20003,Kansas,Anderson,8110,38.2151,-95.292
U20005,Kansas,Atchison,16774,39.5325,-95.3134
U20007,Kansas,Barber,5307,37.2229,-98.6851
U20009,Kansas,Barton,28205,38.4812,-98.7678
U20011,Kansas,Bourbon,15379,37.8561,-94.8509
U20013,Kansas,Brown,10724,39.8259,-95.5699
U20015,Kansas,Butler,59482,37.7737,-96.8388
U20017,Kansas,Chase,3030,38.2986,-96.5941
U20019,Kansas,Chautauqua,4359,37.1543,-96.2454
U20021,Kansas,Cherokee,22605,37.1694,-94.8457
U20023,Kansas,Cheyenne,3165,39.7893,-101.7273
U20025,Kansas,Clark,2390,37.2338,-99.8139
U20027,Kansas,Clay,8822,39.345,-97.1689
U20029,Kansas,Cloud,10268,39.4873,-97.6414
U20031,Kansas,Coffey,8865,38.2365,-95.7291
U20033,Kansas,Comanche,1967,37.1891,-99.2541
U20035,Kansas,Cowley,36291,37.2345,-96.8372
U20037,Kansas,Crawford,38242,37.5056,-94.8539
U20039,Kansas,Decatur,3472,39.7835,-100.4597
U20041,Kansas,Dickinson,19344,38.8677,-97.1579
U20043,Kansas,Doniphan,8249,39.7885,-95.1472
U20045,Kansas,Douglas,99962,38.8966,-95.2905
U20047,Kansas,Edwards,3449,37.8836,-99.3047
U20049,Kansas,Elk,3261,37.456,-96.2446
U20051,Kansas,Ellis,27507,38.9146,-99.3173
U20053,Kansas,Ellsworth,6525,38.7008,-98.2054
U20055,Kansas,Finney,40523,38.0499,-100.7399
U20057,Kansas,Ford,32458,37.6884,-99.8847
U20059,Kansas,Franklin,24784,38.558,-95.279
U20061,Kansas,Geary,27947,39.0022,-96.768
U20063,Kansas,Gove,3068,38.9172,-100.4874
U20065,Kansas,Graham,2946,39.3494,-99.881
U20067,Kansas,Grant,7909,37.5475,-101.2994
U20069,Kansas,Gray,5904,37.7445,-100.4517
U20071,Kansas,Greeley,1534,38.4804,-101.806
U20073,Kansas,Greenwood,7673,37.8787,-96.2422
U20075,Kansas,Hamilton,2670,37.9952,-101.7937
U20077,Kansas,Harper,6536,37.1882,-98.0666
U20079,Kansas,Harvey,32869,38.0501,-97.4367
U20081,Kansas,Haskell,4307,37.5586,-100.8769
U20083,Kansas,Hodgeman,2085,38.0875,-99.8984
U20085,Kansas,Jackson,12657,39.411,-95.7945
U20087,Kansas,Jefferson,18426,39.2396,-95.3753
U20089,Kansas,Jewell,3791,39.777,-98.2226
U20091,Kansas,Johnson,451086,38.8839,-94.8223
U20093,Kansas,Kearny,4531,37.9945,-101.3081
U20095,Kansas,Kingman,8673,37.553,-98.1445
U20097,Kansas,Kiowa,3278,37.5612,-99.2865
U20099,Kansas,Labette,22835,37.1915,-95.2975
U20101,Kansas,Lane,2155,38.4813,-100.4662
U20103,Kansas,Leavenworth,68691,39.1895,-95.039
U20105,Kansas,Lincoln,3578,39.0473,-98.2143
U20107,Kansas,Linn,9570,38.2165,-94.8449
U20109,Kansas,Logan,3046,38.9133,-101.1574
U20111,Kansas,Lyon,35935,38.4555,-96.1616
U20113,Kansas,McPherson,29554,38.3958,-97.6475
U20115,Kansas,Marion,13361,38.3596,-97.1028
U20117,Kansas,Marshall,10965,39.7827,-96.5212
U20119,Kansas,Meade,4631,37.2439,-100.3601
U20121,Kansas,Miami,28351,38.5668,-94.833
U20123,Kansas,Mitchell,6932,39.393,-98.2074
U20125,Kansas,Montgomery,36252,37.1895,-95.7424
U20127,Kansas,Morris,6104,38.6877,-96.6449
U20129,Kansas,Morton,3496,37.1853,-101.8095
U20131,Kansas,Nemaha,10717,39.791,-96.0054
U20133,Kansas,Neosho,16997,37.5643,-95.3157
U20135,Kansas,Ness,3454,38.4804,-99.9087
U20137,Kansas,Norton,5953,39.7839,-99.8992
U20139,Kansas,Osage,16712,38.6497,-95.7273
U20141,Kansas,Osborne,4452,39.3486,-98.7679
U20143,Kansas,Ottawa,6163,39.138,-97.6548
U20145,Kansas,Pawnee,7233,38.1829,-99.2322
U20147,Kansas,Phillips,6001,39.7845,-99.3421
U20149,Kansas,Pottawatomie,18209,39.3822,-96.3371
U20151,Kansas,Pratt,9647,37.6476,-98.7401
U20153,Kansas,Rawlins,2966,39.7862,-101.0767
U20155,Kansas,Reno,64790,37.9482,-98.0783
U20157,Kansas,Republic,5835,39.8289,-97.6509
U20159,Kansas,Rice,10761,38.3472,-98.2014
U20161,Kansas,Riley,62843,39.2912,-96.7275
U20163,Kansas,Rooks,5685,39.346,-99.3245
U20165,Kansas,Rush,3551,38.5236,-99.3092
U20167,Kansas,Russell,7370,38.9168,-98.7656
U20169,Kansas,Saline,53597,38.7863,-97.6502
U20171,Kansas,Scott,5120,38.4819,-100.9064
U20173,Kansas,Sedgwick,452869,37.6838,-97.4595
U20175,Kansas,Seward,22510,37.1806,-100.8547
U20177,Kansas,Shawnee,169871,39.0418,-95.7557
U20179,Kansas,Sheridan,2813,39.3505,-100.4412
U20181,Kansas,Sherman,6760,39.3514,-101.7199
U20183,Kansas,Smith,4536,39.7847,-98.7854
U20185,Kansas,Stafford,4789,38.0356,-98.7199
U20187,Kansas,Stanton,2406,37.5659,-101.7894
U20189,Kansas,Stevens,5463,37.2024,-101.3158
U20191,Kansas,Sumner,25946,37.2367,-97.4933
U20193,Kansas,Thomas,8180,39.3577,-101.0834
U20195,Kansas,Trego,3319,38.9213,-99.8654
U20197,Kansas,Wabaunsee,6885,38.9552,-96.2013
U20199,Kansas,Wallace,1749,38.9266,-101.7711
U20201,Kansas,Washington,6483,39.7767,-97.0956
U20203,Kansas,Wichita,2531,38.4819,-101.3474
U20205,Kansas,Wilson,10332,37.5585,-95.7452
U20207,Kansas,Woodson,3788,37.8885,-95.7576
U20209,Kansas,Wyandotte,157882,39.1154,-94.7631
U21001,Kentucky,Adair,17244,37.1055,-85.2814
U21003,Kentucky,Allen,17800,36.7508,-86.1925
U21005,Kentucky,Anderson,19111,38.0054,-84.9864
U21007,Kentucky,Ballard,8286,37.0511,-89.0092
U21009,Kentucky,Barren,38033,36.9636,-85.925
U21011,Kentucky,Bath,11085,38.1522,-83.7376
U21013,Kentucky,Bell,30060,36.7227,-83.681
U21015,Kentucky,Boone,85991,38.9746,-84.7314
U21017,Kentucky,Bourbon,19360,38.2026,-84.2099
U21019,Kentucky,Boyd,49752,38.36,-82.6814
U21021,Kentucky,Boyle,27697,37.6182,-84.873
U21023,Kentucky,Bracken,8279,38.6785,-84.1004
U21025,Kentucky,Breathitt,16100,37.5212,-83.3224
U21027,Kentucky,Breckinridge,18648,37.7781,-86.4328
U21029,Kentucky,Bullitt,61236,37.9696,-85.703
U21031,Kentucky,Butler,13010,37.207,-86.6825
U21033,Kentucky,Caldwell,13060,37.1486,-87.8705
U21035,Kentucky,Calloway,34177,36.621,-88.2741
U21037,Kentucky,Campbell,88616,38.947,-84.3796
U21039,Kentucky,Carlisle,5351,36.8577,-88.9758
U21041,Kentucky,Carroll,10155,38.6683,-85.1241
U21043,Kentucky,Carter,26889,38.3096,-83.0488
U21045,Kentucky,Casey,15447,37.322,-84.9282
U21047,Kentucky,Christian,72265,36.8934,-87.4936
U21049,Kentucky,Clark,33144,37.9701,-84.145
U21051,Kentucky,Clay,24556,37.1645,-83.7108
U21053,Kentucky,Clinton,9634,36.7291,-85.1535
U21055,Kentucky,Crittenden,9384,37.3581,-88.105
U21057,Kentucky,Cumberland,7147,36.7842,-85.3935
U21059,Kentucky,Daviess,91545,37.7317,-87.0871
U21061,Kentucky,Edmonson,11644,37.2279,-86.2178
U21063,Kentucky,Elliott,6748,38.1164,-83.0975
U21065,Kentucky,Estill,15307,37.6925,-83.9639
U21067,Kentucky,Fayette,260512,38.0402,-84.4584
U21069,Kentucky,Fleming,13792,38.3684,-83.7062
U21071,Kentucky,Floyd,42441,37.5583,-82.7403
U21073,Kentucky,Franklin,47687,38.2349,-84.8688
U21075,Kentucky,Fulton,7752,36.5526,-89.1877
U21077,Kentucky,Gallatin,7870,38.7602,-84.8621
U21079,Kentucky,Garrard,14792,37.6302,-84.5459
U21081,Kentucky,Grant,22384,38.6492,-84.6259
U21083,Kentucky,Graves,37028,36.7233,-88.6499
U21085,Kentucky,Grayson,24053,37.4586,-86.344
U21087,Kentucky,Green,11518,37.2696,-85.5614
U21089,Kentucky,Greenup,36891,38.5636,-82.9338
U21091,Kentucky,Hancock,8392,37.8434,-86.7928
U21093,Kentucky,Hardin,94174,37.6958,-85.9632
U21095,Kentucky,Harlan,33202,36.8592,-83.2215
U21097,Kentucky,Harrison,17983,38.4435,-84.3328
U21099,Kentucky,Hart,17445,37.3139,-85.882
U21101,Kentucky,Henderson,44829,37.7925,-87.5726
U21103,Kentucky,Henry,15060,38.4516,-85.1201
U21105,Kentucky,Hickman,5262,36.6759,-88.972
U21107,Kentucky,Hopkins,46519,37.3111,-87.5422
U21109,Kentucky,Jackson,13495,37.4033,-84.0207
U21111,Kentucky,Jefferson,693604,38.1895,-85.6576
U21113,Kentucky,Jessamine,39041,37.8733,-84.584
U21115,Kentucky,Johnson,23445,37.8493,-82.8306
U21117,Kentucky,Kenton,151464,38.9305,-84.5335
U21119,Kentucky,Knott,17649,37.3547,-82.9491
U21121,Kentucky,Knox,31795,36.8875,-83.8556
U21123,Kentucky,Larue,13373,37.5455,-85.6972
U21125,Kentucky,Laurel,52715,37.1133,-84.1194
U21127,Kentucky,Lawrence,15569,38.0745,-82.7383
U21129,Kentucky,Lee,7916,37.6054,-83.7185
U21131,Kentucky,Leslie,12401,37.0878,-83.3886
U21133,Kentucky,Letcher,25277,37.1185,-82.8612
U21135,Kentucky,Lewis,14092,38.5321,-83.3733
U21137,Kentucky,Lincoln,23361,37.4573,-84.6581
U21139,Kentucky,Livingston,9804,37.2095,-88.3634
U21141,Kentucky,Logan,26573,36.8598,-86.8814
U21143,Kentucky,Lyon,8080,37.024,-88.0834
U21145,Kentucky,McCracken,65514,37.0537,-88.7124
U21147,Kentucky,McCreary,17080,36.7311,-84.4911
U21149,Kentucky,Mclean,9938,37.5306,-87.2629
U21151,Kentucky,Madison,70872,37.7235,-84.277
U21153,Kentucky,Magoffin,13332,37.699,-83.0697
U21155,Kentucky,Marion,18212,37.5522,-85.2692
U21157,Kentucky,Marshall,30125,36.882,-88.3328
U21159,Kentucky,Martin,12578,37.7968,-82.5066
U21161,Kentucky,Mason,16800,38.5941,-83.8281
U21163,Kentucky,Meade,26349,37.9675,-86.2009
U21165,Kentucky,Menifee,6556,37.9507,-83.5973
U21167,Kentucky,Mercer,20817,37.8121,-84.8797
U21169,Kentucky,Metcalfe,10037,36.9904,-85.6296
U21171,Kentucky,Monroe,11756,36.7141,-85.7135
U21173,Kentucky,Montgomery,22554,38.0381,-83.9123
U21175,Kentucky,Morgan,13948,37.9229,-83.2589
U21177,Kentucky,Muhlenberg,31839,37.2138,-87.1341
U21179,Kentucky,Nelson,37477,37.8032,-85.466
U21181,Kentucky,Nicholas,6813,38.3371,-84.0256
U21183,Kentucky,Ohio,22916,37.4779,-86.8449
U21185,Kentucky,Oldham,46178,38.4,-85.4561
U21187,Kentucky,Owen,10547,38.4996,-84.8415
U21189,Kentucky,Owsley,4858,37.4235,-83.6916
U21191,Kentucky,Pendleton,14390,38.6908,-84.354
U21193,Kentucky,Perry,29390,37.2413,-83.2178
U21195,Kentucky,Pike,68736,37.4821,-82.4029
U21197,Kentucky,Powell,13237,37.8104,-83.827
U21199,Kentucky,Pulaski,56217,37.1083,-84.58
U21201,Kentucky,Robertson,2266,38.5138,-84.0638
U21203,Kentucky,Rockcastle,16582,37.3612,-84.3144
U21205,Kentucky,Rowan,22094,38.2059,-83.426
U21207,Kentucky,Russell,16315,36.9891,-85.059
U21209,Kentucky,Scott,33061,38.2899,-84.5794
U21211,Kentucky,Shelby,33337,38.2394,-85.2284
U21213,Kentucky,Simpson,16405,36.7409,-86.5815
U21215,Kentucky,Spencer,11766,38.027,-85.3215
U21217,Kentucky,Taylor,22927,37.3651,-85.3267
U21219,Kentucky,Todd,11971,36.8403,-87.1836
U21221,Kentucky,Trigg,12597,36.8077,-87.8587
U21223,Kentucky,Trimble,8125,38.6182,-85.3552
U21225,Kentucky,Union,15637,37.658,-87.9516
U21227,Kentucky,Warren,92522,36.9956,-86.4236
U21229,Kentucky,Washington,10916,37.7542,-85.1754
U21231,Kentucky,Wayne,19923,36.802,-84.8304
U21233,Kentucky,Webster,14120,37.52,-87.6851
U21235,Kentucky,Whitley,35865,36.758,-84.1445
U21237,Kentucky,Wolfe,7065,37.7438,-83.4951
U21239,Kentucky,Woodford,23208,38.0428,-84.7481
U22001,Louisiana,Acadia,58861,30.2915,-92.411
U22003,Louisiana,Allen,25440,30.6527,-92.8196
U22005,Louisiana,Ascension,76627,30.2029,-90.91
U22007,Louisiana,Assumption,23388,29.8999,-91.0505
U22009,Louisiana,Avoyelles,41481,31.0851,-91.9938
U22011,Louisiana,Beauregard,32986,30.645,-93.3403
U22013,Louisiana,Bienville,15752,32.3443,-93.0615
U22015,Louisiana,Bossier,98310,32.6962,-93.618
U22017,Louisiana,Caddo,252161,32.5772,-93.8824
U22019,Louisiana,Calcasieu,183577,30.2296,-93.358
U22021,Louisiana,Caldwell,10560,32.1012,-92.1142
U22023,Louisiana,Cameron,9991,29.872,-93.1654
U22025,Louisiana,Catahoula,10920,31.6665,-91.8467
U22027,Louisiana,Claiborne,16851,32.8276,-92.9911
U22029,Louisiana,Concordia,20247,31.4698,-91.6263
U22031,Louisiana,De Soto,25494,32.0592,-93.7408
U22033,Louisiana,East Baton Rouge,412852,30.544,-91.0932
U22035,Louisiana,East Carroll,9421,32.7302,-91.2341
U22037,Louisiana,East Feliciana,21360,30.8398,-91.0434
U22039,Louisiana,Evangeline,35434,30.7207,-92.4041
U22041,Louisiana,Franklin,21263,32.1383,-91.6721
U22043,Louisiana,Grant,18698,31.5978,-92.5617
U22045,Louisiana,Iberia,73266,29.606,-91.8427
U22047,Louisiana,Iberville,33320,30.2884,-91.3631
U22049,Louisiana,Jackson,15397,32.3045,-92.5567
U22051,Louisiana,Jefferson,455466,29.5033,-90.0362
U22053,Louisiana,Jefferson Davis,31435,30.2695,-92.8162
U22055,Louisiana,Lafayette,190503,30.2065,-92.0642
U22057,Louisiana,Lafourche,89974,29.492,-90.3948
U22059,Louisiana,La Salle,14282,31.6808,-92.1618
U22061,Louisiana,Lincoln,42509,32.6011,-92.6621
U22063,Louisiana,Livingston,91814,30.4404,-90.7275
U22065,Louisiana,Madison,13728,32.3658,-91.2407
U22067,Louisiana,Morehouse,31021,32.82,-91.8004
U22069,Louisiana,Natchitoches,39080,31.735,-93.0861
U22071,Louisiana,Orleans,484674,30.0686,-89.939
U22073,Louisiana,Ouachita,147250,32.4775,-92.1548
U22075,Louisiana,Plaquemines,26757,29.4023,-89.2985
U22077,Louisiana,Pointe Coupee,22763,30.7083,-91.6046
U22079,Louisiana,Rapides,126337,31.1932,-92.536
U22081,Louisiana,Red River,9622,32.1012,-93.349
U22083,Louisiana,Richland,20981,32.4181,-91.7584
U22085,Louisiana,Sabine,23459,31.5602,-93.5592
U22087,Louisiana,St. Bernard,67229,29.9181,-89.2635
U22089,Louisiana,St. Charles,48072,29.9138,-90.3593
U22091,Louisiana,St. Helena,10525,30.8214,-90.7093
U22093,Louisiana,St. James,21216,30.0248,-90.794
U22095,Louisiana,St. John The Baptist,43044,30.1175,-90.5047
U22097,Louisiana,St. Landry,87700,30.5834,-91.9893
U22099,Louisiana,St. Martin,48583,30.1214,-91.6115
U22101,Louisiana,St. Mary,53500,29.6293,-91.4638
U22103,Louisiana,St. Tammany,191268,30.41,-89.952
U22105,Louisiana,Tangipahoa,100588,30.6216,-90.4066
U22107,Louisiana,Tensas,6618,32.0015,-91.3426
U22109,Louisiana,Terrebonne,104503,29.3333,-90.8442
U22111,Louisiana,Union,22803,32.8293,-92.3756
U22113,Louisiana,Vermilion,53807,29.7869,-92.2901
U22115,Louisiana,Vernon,52531,31.1106,-93.1815
U22117,Louisiana,Washington,43926,30.8521,-90.0463
U22119,Louisiana,Webster,41831,32.7322,-93.3398
U22121,Louisiana,West Baton Rouge,21601,30.4641,-91.3098
U22123,Louisiana,West Carroll,12314,32.7925,-91.452
U22125,Louisiana,West Feliciana,15111,30.8727,-91.421
U22127,Louisiana,Winn,16894,31.9412,-92.6413
U23001,Maine,Androscoggin,103793,44.1677,-70.2074
U23003,Maine,Aroostook,73938,46.7271,-68.6494
U23005,Maine,Cumberland,265612,43.8083,-70.3304
U23007,Maine,Franklin,29467,44.973,-70.4447
U23009,Maine,Hancock,51791,44.5649,-68.3707
U23011,Maine,Kennebec,117114,44.417,-69.7658
U23013,Maine,Knox,39618,44.042,-69.0385
U23015,Maine,Lincoln,33616,43.9943,-69.514
U23017,Maine,Oxford,54755,44.4946,-70.7347
U23019,Maine,Penobscot,144919,45.3906,-68.6575
U23021,Maine,Piscataquis,17235,45.9177,-69.1045
U23023,Maine,Sagadahoc,35214,43.9167,-69.844
U23025,Maine,Somerset,50888,45.5075,-69.976
U23027,Maine,Waldo,36280,44.5054,-69.1397
U23029,Maine,Washington,33941,44.967,-67.6094
U23031,Maine,York,186742,43.4272,-70.6704
U24001,Maryland,Allegany,74930,39.6123,-78.7031
U24003,Maryland,Anne Arundel,489656,38.9934,-76.5605
U24005,Maryland,Baltimore,754292,39.4432,-76.6166
U24009,Maryland,Calvert,74563,38.5214,-76.5259
U24011,Maryland,Caroline,29772,38.8715,-75.8316
U24013,Maryland,Carroll,150897,39.5632,-77.0155
U24015,Maryland,Cecil,85951,39.5624,-75.9416
U24017,Maryland,Charles,120546,38.4729,-77.0154
U24019,Maryland,Dorchester,30674,38.4292,-76.0474
U24021,Maryland,Frederick,195277,39.4704,-77.3976
U24023,Maryland,Garrett,29846,39.5299,-79.2694
U24025,Maryland,Harford,218590,39.5374,-76.2998
U24027,Maryland,Howard,247842,39.2523,-76.9244
U24029,Maryland,Kent,19197,39.2392,-76.1242
U24031,Maryland,Montgomery,873341,39.1374,-77.2031
U24033,Maryland,Prince Georges,801515,38.8259,-76.8473
U24035,Maryland,Queen Annes,40563,39.0407,-76.0824
U24037,Maryland,St. Marys,86211,38.2227,-76.5343
U24039,Maryland,Somerset,24747,38.0745,-75.8533
U24041,Maryland,Talbot,33812,38.7494,-76.1791
U24043,Maryland,Washington,131923,39.6036,-77.8147
U24045,Maryland,Wicomico,84644,38.3674,-75.6322
U24047,Maryland,Worcester,46543,38.2221,-75.3099
U24510,Maryland,Baltimore City,651154,39.3002,-76.6105
U25001,Massachusetts,Barnstable,222230,41.7988,-70.2111
U25003,Massachusetts,Berkshire,134953,42.3753,-73.2139
U25005,Massachusetts,Bristol,534678,41.7486,-71.0871
U25007,Massachusetts,Dukes,14987,41.3809,-70.7015
U25009,Massachusetts,Essex,723419,42.6427,-70.8651
U25011,Massachusetts,Franklin,71535,42.5838,-72.5917
U25013,Massachusetts,Hampden,456228,42.1362,-72.6356
U25015,Massachusetts,Hampshire,152251,42.3395,-72.6637
U25017,Massachusetts,Middlesex,1465396,42.4795,-71.3965
U25019,Massachusetts,Nantucket,9520,41.3059,-70.1419
U25021,Massachusetts,Norfolk,650308,42.1697,-71.1799
U25023,Massachusetts,Plymouth,472822,41.9872,-70.7419
U25025,Massachusetts,Suffolk,689807,42.332,-71.0202
U25027,Massachusetts,Worcester,750963,42.3117,-71.9403
U26001,Michigan,Alcona,11719,44.6825,-82.8341
U26003,Michigan,Alger,9862,47.0801,-86.5641
U26005,Michigan,Allegan,105665,42.5958,-86.6347
U26007,Michigan,Alpena,31314,44.895,-83.4266
U26009,Michigan,Antrim,23110,45.0055,-85.1756
U26011,Michigan,Arenac,17269,44.0369,-83.7407
U26013,Michigan,Baraga,8746,46.6961,-88.356
U26015,Michigan,Barry,56755,42.5828,-85.3145
U26017,Michigan,Bay,110157,43.6997,-83.9787
U26019,Michigan,Benzie,15998,44.6486,-86.4943
U26021,Michigan,Berrien,162453,41.7926,-86.7418
U26023,Michigan,Branch,45787,41.9186,-85.0665
U26025,Michigan,Calhoun,137985,42.243,-85.0124
U26027,Michigan,Cass,51104,41.9162,-85.9995
U26029,Michigan,Charlevoix,26090,45.5132,-85.4504
U26031,Michigan,Cheboygan,26448,45.4761,-84.4953
U26033,Michigan,Chippewa,38543,46.3218,-84.5206
U26035,Michigan,Clare,31252,43.9911,-84.8383
U26037,Michigan,Clinton,64753,42.9505,-84.5917
U26039,Michigan,Crawford,14273,44.6802,-84.6111
U26041,Michigan,Delta,38520,45.8051,-86.9014
U26043,Michigan,Dickinson,27472,46.0128,-87.8661
U26045,Michigan,Eaton,103655,42.5896,-84.8465
U26047,Michigan,Emmet,31437,45.5901,-84.9868
U26049,Michigan,Genesee,436141,43.0211,-83.7064
U26051,Michigan,Gladwin,26023,43.9898,-84.3898
U26053,Michigan,Gogebic,17370,46.4881,-89.7883
U26055,Michigan,Grand Traverse,77654,44.7187,-85.5538
U26057,Michigan,Gratiot,42285,43.2923,-84.6047
U26059,Michigan,Hillsdale,46527,41.8645,-84.6424
U26061,Michigan,Houghton,36016,46.9983,-88.6521
U26063,Michigan,Huron,36079,43.9076,-82.857
U26065,Michigan,Ingham,279320,42.6035,-84.3738
U26067,Michigan,Ionia,61518,42.9447,-85.0738
U26069,Michigan,Iosco,27339,44.3295,-82.8494
U26071,Michigan,Iron,13138,46.1702,-88.5404
U26073,Michigan,Isabella,63351,43.6452,-84.8394
U26075,Michigan,Jackson,158422,42.2485,-84.4209
U26077,Michigan,Kalamazoo,238603,42.2463,-85.5329
U26079,Michigan,Kalkaska,16571,44.6789,-85.089
U26081,Michigan,Kent,574335,43.0325,-85.5474
U26083,Michigan,Keweenaw,2301,47.682,-88.1488
U26085,Michigan,Lake,11333,43.9952,-85.8114
U26087,Michigan,Lapeer,87904,43.0886,-83.2243
U26089,Michigan,Leelanau,21119,45.1462,-86.0516
U26091,Michigan,Lenawee,98890,41.8959,-84.0669
U26093,Michigan,Livingston,156951,42.6025,-83.9117
U26095,Michigan,Luce,7024,46.9406,-85.5824
U26097,Michigan,Mackinac,11943,46.168,-85.3038
U26099,Michigan,Macomb,788149,42.6715,-82.9109
U26101,Michigan,Manistee,24527,44.3504,-86.603
U26103,Michigan,Marquette,64634,46.6566,-87.584
U26105,Michigan,Mason,28274,43.9966,-86.7508
U26107,Michigan,Mecosta,40553,43.6353,-85.3328
U26109,Michigan,Menominee,25326,45.5442,-87.5099
U26111,Michigan,Midland,82874,43.6484,-84.3792
U26113,Michigan,Missaukee,14478,44.3254,-85.0855
U26115,Michigan,Monroe,145945,41.9161,-83.4871
U26117,Michigan,Montcalm,61266,43.3128,-85.1495
U26119,Michigan,Montmorency,10315,45.0241,-84.1301
U26121,Michigan,Muskegon,170200,43.2893,-86.7519
U26123,Michigan,Newaygo,47874,43.5627,-85.7914
U26125,Michigan,Oakland,1194156,42.6605,-83.3842
U26127,Michigan,Oceana,26873,43.6473,-86.8076
U26129,Michigan,Ogemaw,21645,44.3333,-84.1281
U26131,Michigan,Ontonagon,7818,47.2166,-89.5005
U26133,Michigan,Osceola,23197,43.9976,-85.3223
U26135,Michigan,Oscoda,9418,44.6851,-84.1249
U26137,Michigan,Otsego,23301,45.0218,-84.5766
U26139,Michigan,Ottawa,238314,42.9423,-86.6553
U26141,Michigan,Presque Isle,14411,45.4895,-83.384
U26143,Michigan,Roscommon,25469,44.3395,-84.6113
U26145,Michigan,Saginaw,210039,43.3283,-84.0554
U26147,Michigan,St. Clair,164235,42.9288,-82.6689
U26149,Michigan,St. Joseph,62422,41.9115,-85.5229
U26151,Michigan,Sanilac,44547,43.4492,-82.6428
U26153,Michigan,Schoolcraft,8903,46.0208,-86.1994
U26155,Michigan,Shiawassee,71687,42.9515,-84.1464
U26157,Michigan,Tuscola,58266,43.4879,-83.4366
U26159,Michigan,Van Buren,76263,42.284,-86.3057
U26161,Michigan,Washtenaw,322895,42.2523,-83.8446
U26163,Michigan,Wayne,2061162,42.2847,-83.262
U26165,Michigan,Wexford,30484,44.3314,-85.57
U27001,Minnesota,Aitkin,15301,46.6024,-93.4198
U27003,Minnesota,Anoka,298084,45.2741,-93.2427
U27005,Minnesota,Becker,30000,46.9376,-95.7418
U27007,Minnesota,Beltrami,39650,47.8788,-94.9867
U27009,Minnesota,Benton,34226,45.7012,-94.0014
U27011,Minnesota,Big Stone,5820,45.4199,-96.4022
U27013,Minnesota,Blue Earth,55941,44.0382,-94.0641
U27015,Minnesota,Brown,26911,44.2465,-94.7336
U27017,Minnesota,Carlton,31671,46.6038,-92.671
U27019,Minnesota,Carver,70205,44.8214,-93.8006
U27021,Minnesota,Cass,27150,46.9514,-94.3338
U27023,Minnesota,Chippewa,13088,45.0286,-95.5641
U27025,Minnesota,Chisago,41101,45.5054,-92.9038
U27027,Minnesota,Clay,51229,46.8984,-96.4949
U27029,Minnesota,Clearwater,8423,47.5759,-95.3711
U27031,Minnesota,Cook,5168,47.5386,-90.2902
U27033,Minnesota,Cottonwood,12167,44.0107,-95.1831
U27035,Minnesota,Crow Wing,55099,46.4911,-94.0712
U27037,Minnesota,Dakota,355904,44.6709,-93.0625
U27039,Minnesota,Dodge,17731,44.0207,-92.8694
U27041,Minnesota,Douglas,32821,45.9364,-95.4606
U27043,Minnesota,Faribault,16181,43.6765,-93.9472
U27045,Minnesota,Fillmore,21122,43.6773,-92.0937
U27047,Minnesota,Freeborn,32584,43.6742,-93.3503
U27049,Minnesota,Goodhue,44127,44.4062,-92.716
U27051,Minnesota,Grant,6289,45.9307,-96.0107
U27053,Minnesota,Hennepin,1116200,45.0061,-93.4752
U27055,Minnesota,Houston,19718,43.667,-91.5016
U27057,Minnesota,Hubbard,18376,47.0956,-94.9133
U27059,Minnesota,Isanti,31287,45.5624,-93.2963
U27061,Minnesota,Itasca,43992,47.4908,-93.6131
U27063,Minnesota,Jackson,11268,43.673,-95.1497
U27065,Minnesota,Kanabec,14996,45.9478,-93.2978
U27067,Minnesota,Kandiyohi,41203,45.1527,-95.005
U27069,Minnesota,Kittson,5285,48.776,-96.7803
U27071,Minnesota,Koochiching,14355,48.2455,-93.7828
U27073,Minnesota,Lac Qui Parle,8067,44.9999,-96.1768
U27075,Minnesota,Lake,11058,47.5171,-91.4117
U27077,Minnesota,Lake of The Woods,4522,48.7681,-94.9046
U27079,Minnesota,Le Sueur,25426,44.3734,-93.7302
U27081,Minnesota,Lincoln,6429,44.4082,-96.272
U27083,Minnesota,Lyon,25425,44.4092,-95.8473
U27085,Minnesota,McLeod,34898,44.8216,-94.2723
U27087,Minnesota,Mahnomen,5190,47.3258,-95.8107
U27089,Minnesota,Marshall,10155,48.3627,-96.3578
U27091,Minnesota,Martin,21802,43.6771,-94.5372
U27093,Minnesota,Meeker,22644,45.1232,-94.5273
U27095,Minnesota,Mille Lacs,22330,45.929,-93.633
U27097,Minnesota,Morrison,31712,46.0205,-94.2666
U27099,Minnesota,Mower,38603,43.6662,-92.7595
U27101,Minnesota,Murray,9165,44.0156,-95.7616
U27103,Minnesota,Nicollet,29771,44.3588,-94.2457
U27105,Minnesota,Nobles,20832,43.6777,-95.7631
U27107,Minnesota,Norman,7442,47.3295,-96.4638
U27109,Minnesota,Olmsted,124277,44.0034,-92.4067
U27111,Minnesota,Otter Tail,57159,46.4057,-95.7146
U27113,Minnesota,Pennington,13584,48.0692,-96.0377
U27115,Minnesota,Pine,26530,46.1009,-92.7631
U27117,Minnesota,Pipestone,9895,44.0154,-96.257
U27119,Minnesota,Polk,31369,47.7743,-96.4
U27121,Minnesota,Pope,11236,45.5896,-95.4467
U27123,Minnesota,Ramsey,511035,45.0153,-93.1001
U27125,Minnesota,Red Lake,4299,47.8655,-96.0872
U27127,Minnesota,Redwood,16815,44.4035,-95.2542
U27129,Minnesota,Renville,17154,44.7237,-94.9556
U27131,Minnesota,Rice,56665,44.3509,-93.2985
U27133,Minnesota,Rock,9721,43.6696,-96.2632
U27135,Minnesota,Roseau,16338,48.7611,-95.8215
U27137,Minnesota,St. Louis,200528,47.5839,-92.4636
U27139,Minnesota,Scott,89498,44.6519,-93.5346
U27141,Minnesota,Sherburne,64417,45.4432,-93.7751
U27143,Minnesota,Sibley,15356,44.5757,-94.2301
U27145,Minnesota,Stearns,133166,45.5552,-94.6105
U27147,Minnesota,Steele,33680,44.0153,-93.2205
U27149,Minnesota,Stevens,10053,45.5935,-95.9923
U27151,Minnesota,Swift,11956,45.2755,-95.6904
U27153,Minnesota,Todd,24426,46.0666,-94.9006
U27155,Minnesota,Traverse,4134,45.7698,-96.475
U27157,Minnesota,Wabasha,21610,44.2897,-92.2333
U27159,Minnesota,Wadena,13713,46.5868,-94.9883
U27161,Minnesota,Waseca,19526,44.0185,-93.5898
U27163,Minnesota,Washington,201130,45.0379,-92.8901
U27165,Minnesota,Watonwan,11876,43.9784,-94.6141
U27167,Minnesota,Wilkin,7138,46.3623,-96.4767
U27169,Minnesota,Winona,49985,43.9823,-91.7767
U27171,Minnesota,Wright,89986,45.1751,-93.9664
U27173,Minnesota,Yellow Medicine,11080,44.7157,-95.8628
U28001,Mississippi,Adams,34340,31.4862,-91.3518
U28003,Mississippi,Alcorn,34558,34.8866,-88.581
U28005,Mississippi,Amite,13599,31.2039,-90.7955
U28007,Mississippi,Attala,19661,33.0905,-89.5886
U28009,Mississippi,Benton,8026,34.8108,-89.2
U28011,Mississippi,Bolivar,40633,33.7993,-90.8845
U28013,Mississippi,Calhoun,15069,33.9366,-89.3371
U28015,Mississippi,Carroll,10769,33.4408,-89.9189
U28017,Mississippi,Chickasaw,19440,33.9217,-88.9458
U28019,Mississippi,Choctaw,9758,33.346,-89.2513
U28021,Mississippi,Claiborne,11831,31.9728,-90.9154
U28023,Mississippi,Clarke,17955,32.0484,-88.686
U28025,Mississippi,Clay,21979,33.6617,-88.7833
U28027,Mississippi,Coahoma,30622,34.2287,-90.6032
U28029,Mississippi,Copiah,28757,31.8669,-90.4488
U28031,Mississippi,Covington,19407,31.6333,-89.5489
U28033,Mississippi,De Soto,107199,34.8743,-89.9932
U28035,Mississippi,Forrest,72604,31.1886,-89.2594
U28037,Mississippi,Franklin,8448,31.4778,-90.8959
U28039,Mississippi,George,19144,30.8554,-88.6423
U28041,Mississippi,Greene,13299,31.2128,-88.6348
U28043,Mississippi,Grenada,23263,33.77,-89.8027
U28045,Mississippi,Hancock,42967,30.3914,-89.4798
U28047,Mississippi,Harrison,189601,30.4165,-89.0834
U28049,Mississippi,Hinds,250800,32.2679,-90.4659
U28051,Mississippi,Holmes,21609,33.1259,-90.0912
U28053,Mississippi,Humphreys,11206,33.133,-90.5239
U28055,Mississippi,Issaquena,2274,32.755,-90.9886
U28057,Mississippi,Itawamba,22770,34.2811,-88.3631
U28059,Mississippi,Jackson,131420,30.4585,-88.62
U28061,Mississippi,Jasper,18149,32.017,-89.1194
U28063,Mississippi,Jefferson,9740,31.7336,-91.0439
U28065,Mississippi,Jefferson Davis,13962,31.5647,-89.8266
U28067,Mississippi,Jones,64958,31.621,-89.1673
U28069,Mississippi,Kemper,10453,32.7501,-88.6256
U28071,Mississippi,Lafayette,38744,34.3493,-89.4859
U28073,Mississippi,Lamar,39070,31.1971,-89.515
U28075,Mississippi,Lauderdale,78161,32.404,-88.6604
U28077,Mississippi,Lawrence,13258,31.55,-90.1075
U28079,Mississippi,Leake,20940,32.7533,-89.5226
U28081,Mississippi,Lee,75755,34.289,-88.6809
U28083,Mississippi,Leflore,37947,33.5498,-90.2949
U28085,Mississippi,Lincoln,33166,31.5352,-90.4536
U28087,Mississippi,Lowndes,61586,33.4714,-88.4397
U28089,Mississippi,Madison,74674,32.6344,-90.0342
U28091,Mississippi,Marion,25595,31.2301,-89.8217
U28093,Mississippi,Marshall,34993,34.7662,-89.5042
U28095,Mississippi,Monroe,38014,33.89,-88.485
U28097,Mississippi,Montgomery,12189,33.5007,-89.6396
U28099,Mississippi,Neshoba,28684,32.7525,-89.1193
U28101,Mississippi,Newton,21838,32.402,-89.1184
U28103,Mississippi,Noxubee,12548,33.1063,-88.5658
U28105,Mississippi,Oktibbeha,42902,33.4223,-88.8762
U28107,Mississippi,Panola,34274,34.3652,-89.9631
U28109,Mississippi,Pearl River,48621,30.7738,-89.5868
U28111,Mississippi,Perry,12138,31.1693,-88.9888
U28113,Mississippi,Pike,38940,31.1775,-90.3977
U28115,Mississippi,Pontotoc,26726,34.2271,-89.0372
U28117,Mississippi,Prentiss,25556,34.6209,-88.5222
U28119,Mississippi,Quitman,10117,34.2526,-90.2905
U28121,Mississippi,Rankin,115327,32.2621,-89.9466
U28123,Mississippi,Scott,28423,32.4271,-89.5332
U28125,Mississippi,Sharkey,6580,32.8925,-90.8274
U28127,Mississippi,Simpson,27639,31.9025,-89.9177
U28129,Mississippi,Smith,16182,32.019,-89.495
U28131,Mississippi,Stone,13622,30.7902,-89.1123
U28133,Mississippi,Sunflower,34369,33.6055,-90.5951
U28135,Mississippi,Tallahatchie,14903,33.9559,-90.1728
U28137,Mississippi,Tate,25370,34.6496,-89.9431
U28139,Mississippi,Tippah,20826,34.7636,-88.9188
U28141,Mississippi,Tishomingo,19163,34.7377,-88.2361
U28143,Mississippi,Tunica,9227,34.6522,-90.3718
U28145,Mississippi,Union,25362,34.4891,-89.0023
U28147,Mississippi,Walthall,15156,31.1645,-90.1034
U28149,Mississippi,Warren,49644,32.357,-90.8518
U28151,Mississippi,Washington,62977,33.2731,-90.9444
U28153,Mississippi,Wayne,21216,31.6448,-88.6821
U28155,Mississippi,Webster,10294,33.612,-89.2838
U28157,Mississippi,Wilkinson,10312,31.1602,-91.3256
U28159,Mississippi,Winston,20160,33.0787,-89.0374
U28161,Mississippi,Yalobusha,13051,34.0307,-89.7038
U28163,Mississippi,Yazoo,28149,32.7657,-90.3879
U29001,Missouri,Adair,24977,40.1907,-92.6036
U29003,Missouri,Andrew,16492,39.9889,-94.8036
U29005,Missouri,Atchison,6430,40.4318,-95.4376
U29007,Missouri,Audrain,25853,39.2145,-91.8434
U29009,Missouri,Barry,34010,36.6994,-93.8343
U29011,Missouri,Barton,12541,37.5008,-94.3441
U29013,Missouri,Bates,16653,38.2572,-94.3392
U29015,Missouri,Benton,17180,38.301,-93.2879
U29017,Missouri,Bollinger,12029,37.3183,-90.0246
U29019,Missouri,Boone,135454,38.9897,-92.3108
U29021,Missouri,Buchanan,85998,39.6604,-94.8082
U29023,Missouri,Butler,40867,36.7152,-90.4031
U29025,Missouri,Caldwell,8969,39.659,-93.9792
U29027,Missouri,Callaway,40766,38.836,-91.9241
U29029,Missouri,Camden,37051,38.032,-92.7651
U29031,Missouri,Cape Girardeau,68693,37.3839,-89.6849
U29033,Missouri,Carroll,10285,39.4274,-93.5002
U29035,Missouri,Carter,5941,36.9448,-90.9456
U29037,Missouri,Cass,82092,38.6472,-94.3542
U29039,Missouri,Cedar,13733,37.7337,-93.85
U29041,Missouri,Chariton,8438,39.518,-92.9616
U29043,Missouri,Christian,54285,36.9697,-93.1876
U29045,Missouri,Clark,7416,40.4073,-91.7295
U29047,Missouri,Clay,184006,39.3156,-94.4215
U29049,Missouri,Clinton,18979,39.6087,-94.3958
U29051,Missouri,Cole,71397,38.5068,-92.2714
U29053,Missouri,Cooper,16670,38.8454,-92.8123
U29055,Missouri,Crawford,22804,37.9666,-91.3139
U29057,Missouri,Dade,7923,37.4324,-93.8549
U29059,Missouri,Dallas,15661,37.6836,-93.0338
U29061,Missouri,Daviess,8016,39.9628,-93.9701
U29063,Missouri,Dekalb,11597,39.8947,-94.4072
U29065,Missouri,Dent,14927,37.6033,-91.4959
U29067,Missouri,Douglas,13084,36.9465,-92.5159
U29069,Missouri,Dunklin,33155,36.153,-90.0623
U29071,Missouri,Franklin,93807,38.4083,-91.0734
U29073,Missouri,Gasconade,15342,38.4412,-91.5058
U29075,Missouri,Gentry,6861,40.2094,-94.4041
U29077,Missouri,Greene,240391,37.2582,-93.3406
U29079,Missouri,Grundy,10432,40.1125,-93.5651
U29081,Missouri,Harrison,8850,40.3456,-93.9926
U29083,Missouri,Henry,21997,38.3865,-93.7926
U29085,Missouri,Hickory,8940,37.9367,-93.3228
U29087,Missouri,Holt,5351,40.0957,-95.2191
U29089,Missouri,Howard,10212,39.1434,-92.6959
U29091,Missouri,Howell,37238,36.7744,-91.8874
U29093,Missouri,Iron,10697,37.626,-90.6996
U29095,Missouri,Jackson,654880,39.0072,-94.3425
U29097,Missouri,Jasper,104686,37.2009,-94.3389
U29099,Missouri,Jefferson,198099,38.2574,-90.5431
U29101,Missouri,Johnson,48258,38.7459,-93.806
U29103,Missouri,Knox,4361,40.1368,-92.1468
U29105,Missouri,Laclede,32513,37.6597,-92.5948
U29107,Missouri,Lafayette,32960,39.0687,-93.8026
U29109,Missouri,Lawrence,35204,37.1061,-93.8333
U29111,Missouri,Lewis,10494,40.0846,-91.7288
U29113,Missouri,Lincoln,38944,39.0586,-90.9578
U29115,Missouri,Linn,13754,39.8644,-93.108
U29117,Missouri,Livingston,14558,39.7786,-93.5482
U29119,Missouri,Mcdonald,21681,36.6302,-94.344
U29121,Missouri,Macon,15762,39.8298,-92.5643
U29123,Missouri,Madison,11800,37.4732,-90.3455
U29125,Missouri,Maries,8903,38.1626,-91.9236
U29127,Missouri,Marion,28289,39.8075,-91.6354
U29129,Missouri,Mercer,3757,40.4214,-93.5676
U29131,Missouri,Miller,23564,38.2167,-92.4299
U29133,Missouri,Mississippi,13427,36.8263,-89.2959
U29135,Missouri,Moniteau,14827,38.633,-92.5836
U29137,Missouri,Monroe,9311,39.4983,-92.0065
U29139,Missouri,Montgomery,12136,38.9352,-91.4654
U29141,Missouri,Morgan,19309,38.4208,-92.8748
U29143,Missouri,New Madrid,19760,36.5943,-89.6559
U29145,Missouri,Newton,52636,36.908,-94.3347
U29147,Missouri,Nodaway,21912,40.3605,-94.8833
U29149,Missouri,Oregon,10344,36.6849,-91.4029
U29151,Missouri,Osage,13062,38.4643,-91.8595
U29153,Missouri,Ozark,9542,36.6496,-92.4586
U29155,Missouri,Pemiscot,20047,36.2099,-89.7859
U29157,Missouri,Perry,18132,37.7111,-89.8021
U29159,Missouri,Pettis,39403,38.7274,-93.2852
U29161,Missouri,Phelps,39825,37.8663,-91.7903
U29163,Missouri,Pike,18351,39.3442,-91.171
U29165,Missouri,Platte,73781,39.3787,-94.7615
U29167,Missouri,Polk,26992,37.6168,-93.4008
U29169,Missouri,Pulaski,41165,37.8248,-92.207
U29171,Missouri,Putnam,5223,40.4786,-93.0145
U29173,Missouri,Ralls,9626,39.5535,-91.5248
U29175,Missouri,Randolph,24663,39.4416,-92.4927
U29177,Missouri,Ray,23354,39.3084,-93.9957
U29179,Missouri,Reynolds,6689,37.3609,-90.9695
U29181,Missouri,Ripley,13509,36.6489,-90.8671
U29183,Missouri,St. Charles,283883,38.7811,-90.6749
U29185,Missouri,St. Clair,9652,38.0391,-93.7731
U29186,Missouri,Ste. Genevieve,17842,37.8902,-90.1812
U29187,Missouri,St. Francois,55641,37.8107,-90.4739
U29189,Missouri,St. Louis,1016315,38.6407,-90.446
U29195,Missouri,Saline,23756,39.1358,-93.2042
U29197,Missouri,Schuyler,4170,40.4694,-92.519
U29199,Missouri,Scotland,4983,40.4477,-92.1428
U29201,Missouri,Scott,40422,37.0478,-89.5681
U29203,Missouri,Shannon,8324,37.152,-91.3984
U29205,Missouri,Shelby,6799,39.7975,-92.0887
U29207,Missouri,Stoddard,29705,36.8554,-89.9417
U29209,Missouri,Stone,28658,36.7479,-93.4678
U29211,Missouri,Sullivan,7219,40.2096,-93.1098
U29213,Missouri,Taney,39703,36.6498,-93.0428
U29215,Missouri,Texas,23003,37.3143,-91.9645
U29217,Missouri,Vernon,20454,37.8502,-94.3416
U29219,Missouri,Warren,24525,38.7619,-91.1593
U29221,Missouri,Washington,23344,37.9423,-90.8971
U29223,Missouri,Wayne,13259,37.1138,-90.4609
U29225,Missouri,Webster,31045,37.2808,-92.8761
U29227,Missouri,Worth,2382,40.4805,-94.4191
U29229,Missouri,Wright,17955,37.2676,-92.48
U29510,Missouri,St. Louis City,348189,38.6357,-90.2446
U30001,Montana,Beaverhead,9202,45.1339,-112.8929
U30003,Montana,Big Horn,12671,45.4079,-107.5182
U30005,Montana,Blaine,7009,48.4283,-108.9676
U30007,Montana,Broadwater,4385,46.3345,-111.4961
U30009,Montana,Carbon,9552,45.2245,-109.0286
U30011,Montana,Carter,1360,45.5168,-104.5153
U30013,Montana,Cascade,80357,47.3164,-111.3506
U30015,Montana,Chouteau,5970,47.8868,-110.4362
U30017,Montana,Custer,11696,46.2615,-105.5505
U30019,Montana,Daniels,2017,48.7944,-105.5417
U30021,Montana,Dawson,9059,47.2724,-104.901
U30023,Montana,Deer Lodge,9417,46.0991,-113.1391
U30025,Montana,Fallon,2837,46.3182,-104.4057
U30027,Montana,Fergus,11893,47.223,-109.2233
U30029,Montana,Flathead,74471,48.3147,-114.0543
U30031,Montana,Gallatin,67831,45.5356,-111.1734
U30033,Montana,Garfield,1279,47.2812,-106.9822
U30035,Montana,Glacier,13247,48.7057,-112.9905
U30037,Montana,Golden Valley,1042,46.3806,-109.1746
U30039,Montana,Granite,2830,46.3954,-113.4257
U30041,Montana,Hill,16673,48.6283,-110.1064
U30043,Montana,Jefferson,10049,46.1266,-112.0568
U30045,Montana,Judith Basin,2329,47.0326,-110.3053
U30047,Montana,Lake,26507,47.6429,-114.0837
U30049,Montana,Lewis and Clark,55716,47.1221,-112.383
U30051,Montana,Liberty,2158,48.5597,-111.0369
U30053,Montana,Lincoln,18837,48.5422,-115.4043
U30055,Montana,McCone,1977,47.6296,-105.7572
U30057,Montana,Madison,6851,45.3193,-111.9173
U30059,Montana,Meagher,1932,46.5857,-110.9218
U30061,Montana,Mineral,3884,47.1552,-115.0645
U30063,Montana,Missoula,95802,47.0273,-113.8927
U30065,Montana,Musselshell,4497,46.5057,-108.437
U30067,Montana,Park,15694,45.4219,-110.5328
U30069,Montana,Petroleum,493,47.1419,-108.2266
U30071,Montana,Phillips,4601,48.2502,-107.9288
U30073,Montana,Pondera,6424,48.2303,-112.2199
U30075,Montana,Powder River,1858,45.4089,-105.5553
U30077,Montana,Powell,7180,46.8442,-112.9311
U30079,Montana,Prairie,1199,46.8524,-105.3758
U30081,Montana,Ravalli,36070,46.0793,-114.1191
U30083,Montana,Richland,9667,47.7855,-104.5634
U30085,Montana,Roosevelt,10620,48.2827,-104.9952
U30087,Montana,Rosebud,9383,46.1617,-106.702
U30089,Montana,Sanders,10227,47.7565,-115.1802
U30091,Montana,Sheridan,4105,48.7055,-104.5339
U30093,Montana,Silver Bow,34606,45.896,-112.6602
U30095,Montana,Stillwater,8195,45.6635,-109.3918
U30097,Montana,Sweet Grass,3609,45.8131,-109.9413
U30099,Montana,Teton,6445,47.819,-112.2817
U30101,Montana,Toole,5267,48.6451,-111.7335
U30103,Montana,Treasure,861,46.2096,-107.2805
U30105,Montana,Valley,7675,48.3657,-106.6879
U30107,Montana,Wheatland,2259,46.497,-109.8571
U30109,Montana,Wibaux,1068,46.9629,-104.2745
U30111,Montana,Yellowstone,129352,45.937,-108.2767
U31001,Nebraska,Adams,31151,40.5206,-98.5
U31003,Nebraska,Antelope,7452,42.1832,-98.058
U31005,Nebraska,Arthur,444,41.5709,-101.697
U31007,Nebraska,Banner,819,41.5398,-103.7263
U31009,Nebraska,Blaine,583,41.9252,-99.9908
U31011,Nebraska,Boone,6259,41.7054,-98.0668
U31013,Nebraska,Box Butte,12158,42.2157,-103.0878
U31015,Nebraska,Boyd,2438,42.8944,-98.773
U31017,Nebraska,Brown,3525,42.3494,-99.9232
U31019,Nebraska,Buffalo,42259,40.8552,-99.075
U31021,Nebraska,Burt,7791,41.8542,-96.3377
U31023,Nebraska,Butler,8767,41.2261,-97.132
U31025,Nebraska,Cass,24334,40.9099,-96.1406
U31027,Nebraska,Cedar,9615,42.6045,-97.2568
U31029,Nebraska,Chase,4068,40.5304,-101.6942
U31031,Nebraska,Cherry,6148,42.567,-101.0726
U31033,Nebraska,Cheyenne,9830,41.2142,-103.0119
U31035,Nebraska,Clay,7039,40.5237,-98.051
U31037,Nebraska,Colfax,10441,41.5747,-97.0895
U31039,Nebraska,Cuming,10203,41.9159,-96.7885
U31041,Nebraska,Custer,11793,41.3939,-99.7269
U31043,Nebraska,Dakota,20253,42.3905,-96.5625
U31045,Nebraska,Dawes,9060,42.7112,-103.1349
U31047,Nebraska,Dawson,24365,40.8674,-99.8152
U31049,Nebraska,Deuel,2098,41.113,-102.3326
U31051,Nebraska,Dixon,6339,42.4853,-96.8559
U31053,Nebraska,Dodge,36160,41.577,-96.6459
U31055,Nebraska,Douglas,463585,41.2971,-96.1541
U31057,Nebraska,Dundy,2292,40.1802,-101.6811
U31059,Nebraska,Fillmore,6634,40.525,-97.5967
U31061,Nebraska,Franklin,3574,40.1832,-98.9621
U31063,Nebraska,Frontier,3099,40.5309,-100.4067
U31065,Nebraska,Furnas,5324,40.192,-99.9097
U31067,Nebraska,Gage,22993,40.2552,-96.6835
U31069,Nebraska,Garden,2292,41.6594,-102.3282
U31071,Nebraska,Garfield,1902,41.9056,-98.923
U31073,Nebraska,Gosper,2143,40.5098,-99.8241
U31075,Nebraska,Grant,747,41.9159,-101.7569
U31077,Nebraska,Greeley,2714,41.5676,-98.5306
U31079,Nebraska,Hall,53534,40.866,-98.498
U31081,Nebraska,Hamilton,9403,40.8771,-98.0219
U31083,Nebraska,Harlan,3786,40.1788,-99.4034
U31085,Nebraska,Hayes,1068,40.5358,-101.0556
U31087,Nebraska,Hitchcock,3111,40.1769,-101.0442
U31089,Nebraska,Holt,11551,42.4593,-98.7848
U31091,Nebraska,Hooker,783,41.9187,-101.1168
U31093,Nebraska,Howard,6567,41.2194,-98.5133
U31095,Nebraska,Jefferson,8333,40.1757,-97.1431
U31097,Nebraska,Johnson,4488,40.3955,-96.2686
U31099,Nebraska,Kearney,6882,40.5063,-98.9485
U31101,Nebraska,Keith,8875,41.1944,-101.6445
U31103,Nebraska,Keya Paha,983,42.8755,-99.7184
U31105,Nebraska,Kimball,4089,41.1992,-103.7111
U31107,Nebraska,Knox,9374,42.6344,-97.8913
U31109,Nebraska,Lancaster,250291,40.7835,-96.6887
U31111,Nebraska,Lincoln,34632,41.0503,-100.7445
U31113,Nebraska,Logan,774,41.5422,-100.4437
U31115,Nebraska,Loup,712,41.8977,-99.5098
U31117,Nebraska,McPherson,533,41.5965,-101.0602
U31119,Nebraska,Madison,35226,41.9099,-97.6069
U31121,Nebraska,Merrick,8204,41.1698,-98.0311
U31123,Nebraska,Morrill,5440,41.7322,-102.9906
U31125,Nebraska,Nance,4038,41.4024,-97.9914
U31127,Nebraska,Nemaha,7576,40.3874,-95.851
U31129,Nebraska,Nuckolls,5057,40.1765,-98.0468
U31131,Nebraska,Otoe,15396,40.638,-96.131
U31133,Nebraska,Pawnee,3087,40.1379,-96.2452
U31135,Nebraska,Perkins,3200,40.8561,-101.6364
U31137,Nebraska,Phelps,9747,40.5164,-99.4066
U31139,Nebraska,Pierce,7857,42.2714,-97.611
U31141,Nebraska,Platte,31662,41.5769,-97.5135
U31143,Nebraska,Polk,5639,41.1879,-97.5707
U31145,Nebraska,Red Willow,11448,40.1694,-100.4686
U31147,Nebraska,Richardson,9531,40.1237,-95.7186
U31149,Nebraska,Rock,1756,42.4133,-99.4585
U31151,Nebraska,Saline,13843,40.5168,-97.1318
U31153,Nebraska,Sarpy,122595,41.1151,-96.1091
U31155,Nebraska,Saunders,19830,41.2232,-96.6409
U31157,Nebraska,Scotts Bluff,36951,41.8516,-103.7059
U31159,Nebraska,Seward,16496,40.8719,-97.1404
U31161,Nebraska,Sheridan,6198,42.5071,-102.3897
U31163,Nebraska,Sherman,3318,41.2187,-98.9728
U31165,Nebraska,Sioux,1475,42.4838,-103.7426
U31167,Nebraska,Stanton,6455,41.9048,-97.1747
U31169,Nebraska,Thayer,6055,40.1738,-97.5963
U31171,Nebraska,Thomas,729,41.8486,-100.5069
U31173,Nebraska,Thurston,7171,42.1541,-96.5339
U31175,Nebraska,Valley,4647,41.5641,-98.9835
U31177,Nebraska,Washington,18780,41.534,-96.2246
U31179,Nebraska,Wayne,9851,42.2107,-97.1262
U31181,Nebraska,Webster,4061,40.1806,-98.4986
U31183,Nebraska,Wheeler,886,41.9379,-98.5223
U31185,Nebraska,York,14598,40.8731,-97.5967
U32001,Nevada,Churchill,23982,39.5257,-118.2704
U32003,Nevada,Clark,1375765,36.2142,-115.0138
U32005,Nevada,Douglas,41259,38.9051,-119.609
U32007,Nevada,Elko,45291,41.1411,-115.3514
U32009,Nevada,Esmeralda,971,37.779,-117.6324
U32011,Nevada,Eureka,1651,39.9778,-116.2722
U32013,Nevada,Humboldt,16106,41.4079,-118.1276
U32015,Nevada,Lander,5794,39.9002,-117.0472
U32017,Nevada,Lincoln,4165,37.6346,-114.863
U32019,Nevada,Lyon,34501,39.0222,-119.1974
U32021,Nevada,Mineral,5071,38.5166,-118.4163
U32023,Nevada,Nye,32485,37.9664,-116.459
U32027,Nevada,Pershing,6693,40.4396,-118.4095
U32029,Nevada,Storey,3399,39.4384,-119.5246
U32031,Nevada,Washoe,339486,40.7033,-119.7103
U32033,Nevada,White Pine,9181,39.4178,-114.9009
U32510,Nevada,Carson City,52457,39.1534,-119.7434
U33001,New Hampshire,Belknap,56325,43.5191,-71.4254
U33003,New Hampshire,Carroll,43666,43.8676,-71.2017
U33005,New Hampshire,Cheshire,73825,42.9255,-72.2482
U33007,New Hampshire,Coos,33111,44.6524,-71.2894
U33009,New Hampshire,Grafton,81743,43.9265,-71.8423
U33011,New Hampshire,Hillsborough,380841,42.9116,-71.7231
U33013,New Hampshire,Merrimack,136225,43.2995,-71.6801
U33015,New Hampshire,Rockingham,277359,42.9894,-71.0994
